rackTotCnt,stationName,parkingBikeTotCnt,shared,stationLatitude,stationLongitude,stationId
15,102. 망원역 1번출구 앞,15,100,37.55564880,126.91062927,ST-4
14,103. 망원역 2번출구 앞,15,107,37.55495071,126.91083527,ST-5
13,104. 합정역 1번출구 앞,2,15,37.55073929,126.91508484,ST-6
5,105. 합정역 5번출구 앞,0,0,37.55000687,126.91482544,ST-7
12,106. 합정역 7번출구 앞,2,17,37.54864502,126.91282654,ST-8
10,107. 수협 연남동지점,3,30,37.55784607,126.91871643,ST-9
12,108. 서교동 사거리,1,8,37.55274582,126.91861725,ST-10
10,111. 상수역 2번출구 앞,6,60,37.54787064,126.92353058,ST-15
25,113. 홍대입구역 2번출구 앞,1,4,37.55743790,126.92382050,ST-18
15,114. 홍대입구역 8번출구 앞,1,7,37.55706024,126.92442322,ST-20
15,115. 마스타 빌딩 앞,4,27,37.55893326,126.92711639,ST-12
23,117. 홍은사거리,6,26,37.59115982,126.94132996,ST-17
9,118. 광흥창역 2번출구 앞,0,0,37.54773331,126.93176270,ST-19
10,119. 서강나루 공원,21,210,37.54520798,126.93146515,ST-21
5,120. 신수동 사거리,13,260,37.54524231,126.93411255,ST-22
15,121. 마포소방서 앞,4,27,37.54976654,126.93317413,ST-23
10,122. 신성기사식당 앞,6,60,37.54745865,126.93837738,ST-24
20,123. 문화촌 공원,17,85,37.59432983,126.94738770,ST-25
35,124. 서강대 정문 건너편,2,6,37.55113983,126.93698883,ST-26
20,126. 서강대 후문 옆,1,5,37.55041122,126.94384766,ST-28
9,127. 현대벤처빌 앞,1,11,37.55352020,126.93695068,ST-29
19,128. 신촌역(2호선) 1번출구 옆,3,16,37.55549622,126.93634033,ST-30
10,129. 신촌역(2호선) 6번출구 옆,0,0,37.55505371,126.93756866,ST-31
10,130. 신촌역(2호선) 7번출구 앞,2,20,37.55504990,126.93626404,ST-32
20,131. 증산2교,34,170,37.58417130,126.91110229,ST-33
15,133. 해담는다리,28,187,37.58203125,126.90899658,ST-35
8,134. 연세로 명물길,3,38,37.55789185,126.93807983,ST-36
10,135. 명물길 원형무대 앞,0,0,37.55922699,126.93984222,ST-37
10,137. 신촌기차역입구 교차로,0,0,37.55681229,126.94318390,ST-39
10,138. 신촌동 제1공영주차장 앞,0,0,37.55917740,126.93452454,ST-40
10,139. 연세대 정문 건너편,2,20,37.55986404,126.93441772,ST-43
22,140. 이화여대 후문,0,0,37.56000900,126.94073486,ST-41
10,141. 연대 대운동장 옆,1,10,37.56238174,126.93264771,ST-42
11,142. 아현역 4번출구 앞,0,0,37.55720139,126.95566559,ST-200
8,143. 공덕역 2번출구,8,100,37.54464722,126.95008850,ST-201
9,145. 공덕역 5번출구,13,144,37.54425049,126.95163727,ST-203
12,146. 마포역 2번출구 뒤,3,25,37.53993607,126.94582367,ST-204
7,147. 마포역 4번출구 뒤,13,186,37.53927231,126.94591522,ST-205
11,148. 용강동 주민센터 앞,17,155,37.54234695,126.94302368,ST-206
15,150. 서강대역 2번출구 앞,11,73,37.55295563,126.93434143,ST-207
10,153. 성산2교 사거리,2,20,37.56469727,126.91261292,ST-210
12,154. 마포구청역 ,12,100,37.56090927,126.90549469,ST-211
15,155. 가좌역1 번출구 앞,2,13,37.56829453,126.91504669,ST-212
10,156. 서울서부지방법원 앞,0,0,37.54933167,126.95491791,ST-213
12,157. 애오개역 4번출구 앞,12,100,37.55300140,126.95668793,ST-214
5,159. 이대역 4번 출구,0,0,37.55695343,126.94634247,ST-216
13,160. 북아현동 가구거리,9,69,37.55754852,126.95938110,ST-217
8,161. 무악재역1번 출구,1,13,37.58224487,126.95064545,ST-218
15,162. 봉원고가차도 밑,6,40,37.56626129,126.94667053,ST-219
6,163. 명지전문대학교 정문 앞,0,0,37.58369827,126.92496490,ST-220
10,164. 북가좌1동 주민센터 ,7,70,37.57447815,126.91004944,ST-221
20,165. 중앙근린공원,17,85,37.57513809,126.91394043,ST-222
20,166. 가재울 초등학교,27,135,37.57381821,126.91923523,ST-223
15,167. 연가초등학교 옆,3,20,37.57946014,126.91712952,ST-224
10,169. 북가좌 삼거리,0,0,37.57300186,126.90779877,ST-226
10,170. DMC파크뷰자이아파트 302동 앞,24,240,37.57311249,126.92244720,ST-227
10,171. 임광빌딩 앞,11,110,37.56472397,126.96727753,ST-228
8,173. 서대문역 8번출구 앞,6,75,37.56477737,126.96614838,ST-230
15,175. 홍연2교옆,5,33,37.57806778,126.93088531,ST-231
10,176. 명지대학교 도서관,15,150,37.58109665,126.92402649,ST-555
8,177. 북가좌 초등학교,16,200,37.57763672,126.90965271,ST-345
9,178. 증산3교 앞,8,89,37.57987595,126.90634918,ST-349
14,179. 가좌역 4번출구 앞,0,0,37.56877518,126.91529846,ST-232
10,180. 충정로역 7번출구 아래,1,10,37.55996704,126.96246338,ST-233
15,181. 망원초록길 입구,7,47,37.55134201,126.90267181,ST-339
9,182. 망원2빗물펌프장 앞,11,122,37.55136490,126.90306091,ST-340
15,183. 하늘채코오롱아파트 건너편,13,87,37.56538773,126.91932678,ST-341
8,184. 7번가피자 서교망원점,14,175,37.55894852,126.90775299,ST-342
15,185. 마포 신수공원 앞,7,47,37.54254532,126.93429565,ST-343
40,186. 월드컵공원,11,28,37.56396484,126.89820862,ST-344
9,188. 홍은동 정원여중 입구,6,67,37.58638763,126.93512726,ST-346
10,191. 서우빌딩,18,180,37.57889175,126.91073608,ST-347
8,192. 연서어린이공원,6,75,37.57222748,126.92306519,ST-348
10,194. 증산교 앞,0,0,37.57731628,126.90296936,ST-350
10,195. 모래내고가차도 ,0,0,37.56765747,126.91780853,ST-351
10,196. 연희교차로 인근,1,10,37.56612015,126.92589569,ST-352
10,198. 충정2교,1,10,37.56390762,126.96497345,ST-354
30,199. 서울 월드컵 경기장,5,17,37.56684494,126.89644623,ST-443
22,200. 국회의원회관,0,0,37.52841568,126.91391754,ST-45
15,201. 진미파라곤 앞,1,7,37.53123856,126.92133331,ST-46
30,202. 국민일보 앞,0,0,37.52881622,126.92453003,ST-47
15,203. 국회의사당역 3번출구 옆,1,7,37.52805710,126.91870117,ST-51
13,204. 국회의사당역 5번출구 옆,0,0,37.52816391,126.91702271,ST-50
20,205. 산업은행 앞,0,0,37.52626419,126.92050934,ST-52
35,206. KBS 앞,2,6,37.52466583,126.91802216,ST-53
46,207. 여의나루역 1번출구 앞,2,4,37.52715683,126.93190002,ST-73
22,209. 유진투자증권빌딩 앞,1,5,37.52461243,126.92783356,ST-55
19,213. KT앞,2,11,37.52190781,126.91895294,ST-59
21,214. 금융감독원 앞,0,0,37.52302170,126.92083740,ST-60
10,215. 여의도고교 앞,1,10,37.52483749,126.93490601,ST-64
15,217. NH농협은행 앞,0,0,37.52207947,126.93036652,ST-66
12,219. 롯데캐슬엠파이어 옆,0,0,37.52069473,126.92583466,ST-62
30,220. 미성아파트 A동 앞,0,0,37.51936340,126.92604828,ST-63
10,221. 여의도초교 앞,1,10,37.52267456,126.93778992,ST-67
12,222. 시범아파트버스정류장 옆,2,17,37.51902008,126.93688965,ST-68
20,223. 진주아파트상가 앞,3,15,37.51913071,126.93337250,ST-69
20,224. 롯데캐슬 앞,0,0,37.52008820,126.93236542,ST-70
26,225. 앙카라공원 앞,0,0,37.51758575,126.92961884,ST-71
19,226. 샛강역 1번출구 앞,0,0,37.51776505,126.92841339,ST-72
20,227. 양평1나들목 보행통로 입구,23,115,37.54466629,126.88835907,ST-277
10,228. 선유도역 3번출구 앞,8,80,37.53845978,126.89450836,ST-278
25,229. 양평1 보행육교 앞,3,12,37.53587341,126.89218140,ST-279
13,230. 영등포구청역 1번출구,1,8,37.52463531,126.89621735,ST-413
10,231. 남부고용노동지청 남측,3,30,37.52450562,126.89182281,ST-280
20,232. 양평우림 이비즈센타 앞,29,145,37.52565002,126.88781738,ST-281
10,233. 양평1동 YP센터 앞,2,20,37.52848816,126.89164734,ST-282
10,235. 신길동 우리은행 옆,5,50,37.50456619,126.91023254,ST-284
10,236. 문래동자이아파트 앞,24,240,37.51615524,126.89461517,ST-285
20,237. 보라매 두산위브 건너편,34,170,37.49651337,126.91480255,ST-286
17,238. 제2구민체육센타 앞,3,18,37.52638626,126.90275574,ST-287
19,239. 유스호스텔 앞,14,74,37.52585220,126.90328217,ST-288
10,240. 문래역 4번출구 앞,0,0,37.51873779,126.89557648,ST-289
10,241. 신길우성1차아파트 앞 공원,15,150,37.50501633,126.89853668,ST-290
15,242. 신길선원가와인아파트 앞,3,20,37.51093292,126.91022491,ST-291
15,243. 이앤씨드림타워 앞,4,27,37.52708435,126.89138031,ST-292
20,244. 영등포삼환아파트 앞,16,80,37.53007889,126.90570831,ST-293
14,245. 삼성생명 당산사옥 앞,0,0,37.52826309,126.89662933,ST-294
14,247. 당산역 10번출구 앞,2,14,37.53342056,126.90223694,ST-295
10,248. 초원아파트 앞,1,10,37.53105545,126.92420959,ST-296
16,249. 여의도중학교 옆,0,0,37.52457809,126.93580627,ST-297
10,250. 대림아파트 사거리,6,60,37.50764084,126.92308044,ST-298
10,251. 서울지방병무청 버스정류장,0,0,37.50449371,126.92195129,ST-299
10,252. 보라매역4번출구,4,40,37.49982834,126.91994476,ST-300
10,254. 도림신협 앞,26,260,37.50380325,126.90341949,ST-302
15,255. 도림사거리,9,60,37.50657272,126.90113068,ST-303
10,256. 동아에코빌입구,13,130,37.50947571,126.89929962,ST-304
14,258. 신길역3번출구,5,36,37.51769257,126.91429901,ST-306
17,259. 대방역6번출구,64,376,37.51359177,126.92593384,ST-307
15,260. 여의도 마리나선착장 앞,0,0,37.53365707,126.91216278,ST-414
12,263. 근로자회관 사거리,31,258,37.51715088,126.88862610,ST-417
15,264. 교보생명보험 앞,19,127,37.52193069,126.89161682,ST-418
11,265. 영등포유통상가 사거리,2,18,37.52113342,126.89653778,ST-419
10,266. 영등포청과시장 사거리,5,50,37.52029419,126.90119171,ST-420
10,267. 삼성화재 사옥 옆,3,30,37.53596115,126.89830017,ST-421
6,268. 그랜드컨벤션센터 앞,4,67,37.53471756,126.90000153,ST-422
10,270. 증권거래소후문교차로,0,0,37.52234268,126.92710114,ST-424
10,271. 샛강생태공원방문자센터 앞,0,0,37.51896286,126.92161560,ST-425
20,272. 당산육갑문,23,115,37.53533936,126.90367889,ST-426
10,275. 신동아아파트,17,170,37.52269745,126.88568115,ST-1320
10,276. 영등포로터리2,6,60,37.51828384,126.91263580,ST-1321
10,278. 쌍용플레티넘오피스텔,22,220,37.50793076,126.89523315,ST-1323
15,279. 영등포 푸르지오 아파트 B,19,127,37.51322937,126.90446472,ST-1353
10,280. 양평동6차현대아파트 앞,49,490,37.53210068,126.89443970,ST-1539
8,281. 대림신동아아파트 앞,8,100,37.49824142,126.89398193,ST-1540
10,282. 신한은행 대림동지점,13,130,37.48752975,126.90487671,ST-1541
15,283. 아크로타워 스퀘어(영등포시장),28,187,37.52251816,126.90721893,ST-1649
16,284. 센트럴 푸르지오 시티 앞,3,19,37.51821136,126.90222931,ST-1650
9,285. 콤텍시스템 앞,4,44,37.49985886,126.89723969,ST-1651
12,286. 우성아파트 교차로,17,142,37.49457169,126.89974976,ST-1652
10,287. 영등포전화국사거리 (서강어린이공원),9,90,37.52576828,126.90573883,ST-1653
10,288. 쌍용예가(구청별관),8,80,37.52809906,126.89338684,ST-1677
10,289. 대림3동사거리,14,140,37.49980927,126.89800262,ST-1697
12,290. 새말소공원,23,192,37.53150940,126.89782715,ST-1698
14,291. 문래동 하이테크 시티,0,0,37.51412964,126.89939117,ST-1699
10,292. 영일 어린이공원,33,330,37.51012039,126.90406799,ST-1700
15,293. 충북 미래관,11,73,37.52917099,126.90757751,ST-1701
10,295.영등포공원 분수대 앞,12,120,37.51481247,126.91170502,ST-1967
20,296.KT플라자 영등포점,23,115,37.52630234,126.90538025,ST-1968
10,297.국회3문,0,0,37.52863693,126.91267395,ST-1969
25,298.KBS 연구동 건너편,0,0,37.52750778,126.91429901,ST-1970
10,299.여의도 순복음교회,0,0,37.53179169,126.92245483,ST-1971
6,300. 정동사거리,2,33,37.56805038,126.96923065,ST-116
20,301. 경복궁역 7번출구 앞,20,100,37.57579422,126.97145081,ST-117
12,302. 경복궁역 6번출구 뒤,11,92,37.57561493,126.97289276,ST-118
8,303. 광화문역 1번출구 앞,0,0,37.57176971,126.97466278,ST-119
16,305. 종로구청 옆,1,6,37.57255936,126.97833252,ST-121
11,307. 서울역사박물관 앞,0,0,37.56999969,126.97109985,ST-123
31,308. 광화문 S타워 앞,0,0,37.56996918,126.97393799,ST-124
13,309. 광화문역 6번출구 옆 B,0,0,37.56996155,126.97615814,ST-125
8,310. 청계광장 옆,0,0,37.56887817,126.97747040,ST-126
10,314. 국립현대미술관,0,0,37.57970810,126.98085785,ST-130
8,316. 종각역 1번출구 앞,2,25,37.57039642,126.98178864,ST-132
10,318. 광교사거리 남측,0,0,37.56863403,126.98231506,ST-134
17,320. 을지로입구역 4번출구 앞,5,29,37.56622314,126.98358917,ST-136
15,321. KEB 하나금융그룹 명동사옥 옆,8,53,37.56546402,126.98413849,ST-137
10,322. 명동성당 앞,0,0,37.56447601,126.98696899,ST-138
8,324. 신세계백화점 본점 앞,6,75,37.56134415,126.98050690,ST-140
15,326. 안국역 5번출구 앞,3,20,37.57624054,126.98616028,ST-142
10,327. 낙원상가 옆,0,0,37.57335663,126.98746490,ST-143
11,328. 탑골공원 앞,1,9,37.57039642,126.98818970,ST-144
8,329. 청계2가 사거리 옆,0,0,37.56848526,126.98788452,ST-145
10,331. 을지로2가 사거리 북측,0,0,37.56638336,126.98720551,ST-147
5,332. 을지로2가 사거리 남측,0,0,37.56599045,126.98779297,ST-148
10,334. 종로3가역 2번출구 뒤,7,70,37.57059860,126.99179077,ST-150
10,335. 종로3가역 15번출구 앞,11,110,37.57019424,126.99165344,ST-151
8,336. 충무로역 6번출구 앞,1,13,37.56144714,126.99311066,ST-152
5,337. 창경궁 입구,2,40,37.57897949,126.99647522,ST-153
18,338. 세운스퀘어 앞,0,0,37.57095718,126.99712372,ST-154
10,339. 종로4가 사거리,5,50,37.57106781,126.99819183,ST-155
8,340. 혜화동 로터리,11,138,37.58562851,127.00067902,ST-156
8,341. 혜화역 3번출구 뒤,4,50,37.58156967,127.00178528,ST-157
22,342. 대학로 마로니에공원,5,23,37.57978439,127.00253296,ST-158
6,343. 힐스테이트창경궁 아파트 앞,6,100,37.57561111,127.00469971,ST-159
10,344. 성균관대 E하우스 앞,8,80,37.57419968,127.00659180,ST-160
18,345. 서울보증보험본사 앞,10,56,37.57330704,127.00070953,ST-161
10,346. 맥스타일 앞,2,20,37.56896210,127.01014709,ST-162
18,347. 동대문역사문화공원역 9번출구 앞,5,28,37.56533051,127.00784302,ST-163
14,348. 독립문역 사거리,22,157,37.57202911,126.96078491,ST-183
5,349. 어린이도서관,0,0,37.57633209,126.96858978,ST-165
5,351. 청운초교 앞 삼거리,2,40,37.58496857,126.97041321,ST-167
10,352. 중앙고입구 삼거리,1,10,37.58341599,126.98523712,ST-168
8,353. 재동초교 앞 삼거리,1,13,37.57938766,126.98494720,ST-169
10,354. 포르투갈 대사관 앞,3,30,37.57915497,126.98896027,ST-170
15,355. 서울사대부설초등학교 앞,2,13,37.57650757,127.00245667,ST-171
15,356. KT혜화지사 앞,1,7,37.57714462,127.00205994,ST-172
13,358. 성균관대입구 사거리 A,9,69,37.58250046,126.99853516,ST-173
8,359. 원남동사거리,6,75,37.57606125,126.99768066,ST-174
10,361. 동묘앞역 1번출구 뒤,15,150,37.57324219,127.01590729,ST-175
10,362. 청계8가사거리 A,25,250,37.57223511,127.02317810,ST-176
13,363. 신설동역 11번출구 뒤,25,192,37.57559204,127.02285004,ST-177
8,364. 창신역 1번출구 앞,3,38,37.57933426,127.01508331,ST-178
13,367. 독립문역 3-1번출구 ,32,246,37.57415771,126.95851898,ST-180
15,368. SK 서린빌딩 앞,1,7,37.56924820,126.98053741,ST-181
23,370. 시청역(2호선) 9번출구 뒤,0,0,37.56322861,126.97483826,ST-185
10,371. 동대입구역 6번출구 뒤,5,50,37.55887222,127.00553894,ST-186
10,372. 약수역 3번출구 뒤,1,10,37.55429459,127.01119995,ST-187
12,374. 청구역 2번출구 앞,10,83,37.56047440,127.01407623,ST-189
7,379. 서울역9번출구,4,57,37.55599976,126.97335815,ST-194
8,380. CJ제일제당 앞,4,50,37.56386566,127.00274658,ST-195
10,381. 장충체육관,18,180,37.55853271,127.00698853,ST-196
7,382. 약수역 10번출구 앞,5,71,37.55519867,127.01004791,ST-197
27,383. 신당역 12번 출구 뒤,29,107,37.56591797,127.01642609,ST-198
5,384. 종로학원본원 ,4,80,37.55978012,126.96850586,ST-199
10,385. 종각역 5번출구,0,0,37.56983566,126.98265839,ST-336
10,387. 훈련원공원주차장 앞,14,140,37.56699371,127.00346375,ST-338
10,388. 동성중학교 앞,10,100,37.58573532,127.00160980,ST-444
9,389. 을지로4가역 1번출구,2,22,37.56673050,126.99660492,ST-943
12,390. 충무로역 1번출구,2,17,37.56138992,126.99535370,ST-944
8,391. 시립미술관,0,0,37.56505203,126.97340393,ST-977
12,393. 동대문역 8번 출구,1,8,37.57014084,127.00937653,ST-1372
15,394. 경희궁 자이 3단지,12,80,37.56748962,126.96591949,ST-1373
8,395. 경희궁 자이 2단지,21,263,37.56885529,126.96456146,ST-1374
13,397. 종묘공영주차장 건너편,3,23,37.57048035,126.99663544,ST-1432
8,398. 을지로3가역 3번출구,0,0,37.56655884,126.99243927,ST-1435
15,399. 서울역 센트럴 자이아파트,8,53,37.55410767,126.96540833,ST-1436
14,400. 상암한화오벨리스크 1차 앞,19,136,37.58752441,126.88300323,ST-110
13,401. 상암월드컵파크 10단지 앞,8,62,37.58618927,126.88161469,ST-76
20,402. 상암월드컵파크 9단지 앞,9,45,37.58292770,126.87983704,ST-77
20,403. 부엉이공원 앞,2,10,37.58559036,126.88472748,ST-78
8,405. DMC빌 앞,0,0,37.58265686,126.88578796,ST-80
15,406. 상암월드컵파크 7단지 앞,2,13,37.58108902,126.88088226,ST-81
17,407. 마포구 육아종합지원센터,10,59,37.58063126,126.88367462,ST-83
14,408. LG CNS앞,1,7,37.58081055,126.88665009,ST-84
30,409. 누리꿈스퀘어 옆,0,0,37.57939911,126.88916016,ST-86
10,410. 상암중학교 옆,4,40,37.57739258,126.88747406,ST-88
10,411. DMC홍보관,0,0,37.57799530,126.89147186,ST-90
21,412. DMC산학협력연구센터 앞,6,29,37.57565689,126.89079285,ST-91
10,413. 상암월드컵파크 3단지 후문,13,130,37.57147598,126.88968658,ST-92
8,414. 상암동주민센터 옆,0,0,37.57822037,126.89447021,ST-94
10,415. DMC역 9번출구 앞,0,0,37.57746887,126.89736176,ST-95
12,416. 상암월드컵파크 1단지 교차로,2,17,37.57566452,126.89444733,ST-96
20,417. DMC역 2번출구 옆,0,0,37.57506943,126.89991760,ST-93
20,418. 월드컵경기장역 3번출구 옆,0,0,37.57048035,126.89889526,ST-89
21,419. 홈플러스 마포점 앞,2,10,37.56842041,126.89942932,ST-87
37,420. 서울시 공공자전거 상암센터,26,70,37.56624603,126.89617920,ST-85
8,421. 마포구청 앞,4,50,37.56574631,126.90186310,ST-82
9,422. 문화비축기지,10,111,37.56897736,126.89440155,ST-968
15,424. 롯데하이마트 (상암월드컵점),2,13,37.57361984,126.89804840,ST-990
10,425. DMC첨단산업센터,2,20,37.58450317,126.88559723,ST-991
10,426. 서울신용보증재단,0,0,37.54906082,126.95417786,ST-992
12,427. 성산시영아파트,24,200,37.56937790,126.90402985,ST-1397
10,428. 명보사거리,1,10,37.56439972,126.99143219,ST-1437
8,429. 송도병원,2,25,37.54988861,127.00734711,ST-1438
6,430. 장충동먹자골목 앞,0,0,37.56212616,127.00625610,ST-1439
25,431. 청계천 영도교,15,60,37.57101440,127.01974487,ST-1440
10,432. 마포중앙도서관,0,0,37.56333923,126.90820312,ST-1494
12,433. 을지로입구역 2번출구,6,50,37.56634521,126.98229218,ST-1668
10,434. 신당 래미안 버스정류장,13,130,37.56148911,127.02393341,ST-1669
10,435. SK 남산빌딩,1,10,37.55686188,126.97561646,ST-1670
10,436. 이대역 5번출구,0,0,37.55659103,126.94618988,ST-1675
11,437. 대흥역 1번출구,10,91,37.54846954,126.94092560,ST-1691
15,438. 성산2-1 공영주차장,4,27,37.56472015,126.90676880,ST-1692
15,440. 하늘공원 입구,8,53,37.57012177,126.88134766,ST-1754
15,441.염천교사거리,1,7,37.55989075,126.97149658,ST-1761
13,442.서울역 서부,23,177,37.55641556,126.96919250,ST-1768
9,443.호암아트홀,0,0,37.56211090,126.97071838,ST-1769
15,445.대한상공회의소,1,7,37.56015396,126.97410583,ST-1771
13,446. 상명대입구,8,62,37.60012817,126.95783234,ST-938
6,447. 신영동삼거리,1,17,37.60399246,126.96194458,ST-939
10,449. 일성아파트,8,80,37.60871887,126.97286224,ST-941
51,450. 효자동 삼거리,24,47,37.58360291,126.97254944,ST-978
8,451. 청와대앞길,1,13,37.58351517,126.97966766,ST-979
13,452. 동대문 종합시장 버스정류장,10,77,37.57123947,127.00440979,ST-1605
10,453. 종로오가 지하쇼핑센터 14번출구,6,60,37.57114029,127.00067139,ST-1606
13,454. 종로2가 버스정류장 (종각방향),0,0,37.57035828,126.98638153,ST-1607
8,455. 종로6가역 버스정류장(동대문 방향),1,13,37.57096100,127.00605774,ST-1608
10,456. 숭인2동 주민센터 입구,27,270,37.57447052,127.01982880,ST-1609
10,457. 종로꽃시장 입구 옆,13,130,37.57131958,127.00720978,ST-1610
21,458. 광화문역 5번출구,0,0,37.56989288,126.97756958,ST-1611
10,461. 서울지방경찰청,1,10,37.57436371,126.97236633,ST-1619
10,464. 삼청동 골목,6,60,37.58419037,126.98169708,ST-1756
5,465. 삼청공원 앞,0,0,37.58760452,126.98359680,ST-1759
13,466.롯데호텔,10,77,37.56584167,126.97981262,ST-1772
10,467.한국은행,0,0,37.56221390,126.98086548,ST-1773
8,468.웨스틴 조선호텔,0,0,37.56415939,126.97948456,ST-1774
11,469.회현역 1번출구,0,0,37.55923080,126.98014069,ST-1775
13,470.회현역 7번출구,0,0,37.55974579,126.98000336,ST-1776
10,471.회현사거리 남측,0,0,37.56035995,126.98265076,ST-1777
12,472.삼일교(시그니쳐 타워),0,0,37.56787109,126.98840332,ST-1778
20,473.을지로4가역 9번출구,2,10,37.56605148,126.99798584,ST-1779
40,474.동대문역사문화공원역 1번출구 뒤편,17,43,37.56629944,127.00849152,ST-1780
21,475.DDP 패션몰,15,71,37.56764984,127.01181030,ST-1781
10,476.광희문,3,30,37.56443024,127.00995636,ST-1782
10,477.앰배서더 호텔 주변,7,70,37.55928802,127.00268555,ST-1783
8,479.동대입구역 3번 출구,1,13,37.55937576,127.00602722,ST-1785
8,480.약수역 6번 출구,1,13,37.55432129,127.01070404,ST-1786
12,483.남산타운아파트 버스정류장,5,42,37.54758453,127.00643921,ST-1789
10,485.서울역5번출구,5,50,37.55677032,126.97319794,ST-1791
5,486. 평창동주민센터 앞,10,200,37.60627365,126.96832275,ST-2019
10,488.푸르메병원,6,60,37.58456802,126.88021088,ST-2147
10,489.구룡근린공원,0,0,37.58320236,126.88276672,ST-2148
23,490.가온문화공원,0,0,37.58207703,126.88766479,ST-2149
10,491.월드컵파크 4단지,6,60,37.57597733,126.88806915,ST-2150
7,493.홍대입구역 6번출구,10,143,37.55657578,126.92885590,ST-2152
5,494.신수동주민센터,7,140,37.54724503,126.93502808,ST-2153
10,495.염리초등학교 앞,8,80,37.54243088,126.94699860,ST-2154
25,497.합정동주민센터 앞,0,0,37.55175400,126.91230011,ST-2156
10,498.연남동주민센터 앞,2,20,37.56465149,126.92212677,ST-2157
7,500. 어린이대공원역 3번출구 앞,5,71,37.54705048,127.07433319,ST-97
30,501. 광진구의회 앞,20,67,37.53730774,127.07035065,ST-98
33,502. 자양(뚝섬한강공원)역 1번출구 앞,14,42,37.53186035,127.06719208,ST-99
11,505. 자양사거리 광진아크로텔 앞,5,45,37.53701019,127.08224487,ST-102
7,506. 금호 어울림 아파트 앞,6,86,37.54906082,127.05779266,ST-103
10,508. 성수아카데미타워 앞,0,0,37.54516983,127.05757141,ST-105
15,510. 뚝도아리수정수센터 버스정류소 옆,6,40,37.54122162,127.04380035,ST-107
16,511. 서울숲역 5번 출구 옆,2,13,37.54458237,127.04460907,ST-108
15,512. 뚝섬역 1번 출구 옆,2,13,37.54856110,127.04500580,ST-109
13,513. 뚝섬역 5번 출구 정류소 옆,0,0,37.54630661,127.04980469,ST-111
12,514. 성수사거리 버스정류장 앞,4,33,37.54257965,127.06330872,ST-112
10,516. 광진메디칼 앞,18,180,37.54840469,127.06936646,ST-114
20,518. 청계천 박물관 앞,3,15,37.57152557,127.03535461,ST-234
20,519. 양지사거리,11,55,37.56699371,127.02991486,ST-235
7,520. 상왕십리역 4번 출구 앞,6,86,37.56385803,127.03031921,ST-236
14,521. 왕십리역 11번 출구 앞,3,21,37.56144714,127.03491974,ST-237
5,522. 금호역 1번출구 앞,3,60,37.54864120,127.01642609,ST-238
7,523. 옥수동성당 옆,4,57,37.54366302,127.01406097,ST-239
10,524. 래미안금호하이리버 아파트 102동 옆,9,90,37.55220032,127.02505493,ST-240
20,525. 한양대병원사거리,15,75,37.55805206,127.04035187,ST-241
10,526. 용답토속공원 앞,3,30,37.56351089,127.05672455,ST-242
8,529. 장한평역 8번 출구 앞,37,463,37.56137085,127.06365967,ST-243
9,530. 청계벽산아파트 앞,35,389,37.56874847,127.03040314,ST-244
7,533. 금남시장 교차로,15,214,37.54814911,127.02108765,ST-245
10,534. 금호사거리,11,110,37.54863358,127.02572632,ST-246
11,535. 응봉삼거리,0,0,37.55398560,127.03359222,ST-247
8,536. 행당역 2번출구 앞,16,200,37.55735016,127.02921295,ST-248
10,537. 한양대후문역 부근,1,10,37.56035614,127.04139709,ST-249
10,539. 군자교교차로,18,180,37.55979538,127.07420349,ST-252
8,540. 군자역 7번출구 베스트샵 앞,12,150,37.55603027,127.07864380,ST-253
19,542. 강변역 4번출구 뒤,2,11,37.53582382,127.09416199,ST-254
20,543. 구의공원(테크노마트 앞),1,5,37.53598785,127.09462738,ST-255
10,544. 광남중학교,36,360,37.54072952,127.10290527,ST-256
8,546. 잠실대교북단 교차로,6,75,37.53247833,127.08509064,ST-257
20,548. 자양나들목,28,140,37.52976990,127.07485962,ST-258
10,549. 아차산역 3번출구,5,50,37.55122375,127.08970642,ST-259
20,550. 서울시설공단 앞,6,30,37.57164001,127.03565979,ST-251
7,551. 구의삼성쉐르빌 앞,20,286,37.53984070,127.09388733,ST-377
9,552. 대림아크로리버 앞,25,278,37.53657913,127.09297180,ST-378
19,553. 중곡 성원아파트 앞,40,211,37.57125473,127.07980347,ST-379
9,555. 구의3동주민센터,11,122,37.53784943,127.09217072,ST-381
7,556. 달맞이공원,2,29,37.54205322,127.02040100,ST-357
10,557. 도선동 주민센터 앞,25,250,37.56764221,127.02569580,ST-358
20,558. 성동광진 교육지원청 앞,4,20,37.56460571,127.03652191,ST-359
13,559. 왕십리역 4번 출구 건너편,1,8,37.56109619,127.03679657,ST-360
14,560. 비전교회 앞,37,264,37.55120468,127.06893158,ST-361
10,561. 서울숲역 2번출구 앞,5,50,37.54281616,127.04467010,ST-362
10,563. 성동세무서 건너편,2,20,37.54791260,127.06275177,ST-364
7,564. 금호역 3번출구,9,129,37.54792786,127.01557159,ST-365
19,565. 옥수역 3번출구,35,184,37.54136658,127.01776123,ST-366
14,568. 청계8가 사거리 B,25,179,37.57110214,127.02355957,ST-369
10,569. 응봉현대아파트 정류소,1,10,37.54958344,127.03024292,ST-370
20,571. 세종대학교 대양AI센터,0,0,37.55039597,127.07585907,ST-382
10,573. 구의문주차장 앞,0,0,37.54523087,127.08473206,ST-384
22,574. 아차산역4번출구,25,114,37.55184937,127.08898163,ST-385
10,575. 대원중고교 입구(대하빌딩),0,0,37.56429291,127.08693695,ST-386
10,576. 광나루역 3번 출구,43,430,37.54483032,127.10426331,ST-387
10,577. 광진청소년수련관,22,220,37.54654694,127.10613251,ST-388
8,578. 성동세무서 부근,1,13,37.54829025,127.06246185,ST-371
8,579. 마장역 4번출구,15,188,37.56520462,127.04184723,ST-372
10,582. 경일중학교 앞,6,60,37.54317856,127.04907990,ST-375
25,583. 청계천 생태교실 앞,23,92,37.56797028,127.04689026,ST-376
20,584. 광진광장 교통섬,25,125,37.54782867,127.07263184,ST-445
9,585. 성수2가1동 공영주차장 인근,21,233,37.53680801,127.05548859,ST-446
10,586. 마장동 주민센터,31,310,37.56594086,127.04539490,ST-447
10,587. 유니베라 앞,1,10,37.54541779,127.05264282,ST-482
20,588. 뚝섬 유원지역,3,15,37.53268814,127.06749725,ST-483
8,589. 성수역3번출구,0,0,37.54415894,127.05665588,ST-506
20,590. 건국대학교 (입학정보관),6,30,37.53989029,127.07336426,ST-972
5,591. 건국대학교 (행정관),0,0,37.54277802,127.07537079,ST-973
30,592. 건국대학교 학생회관,8,27,37.54191208,127.07763672,ST-974
8,593.자양중앙나들목,24,300,37.52845383,127.07803345,ST-980
15,594. 중랑물재생센터(서울새활용플라자),39,260,37.55830383,127.05805969,ST-967
10,600. 휘경2동 주민센터,32,320,37.58991241,127.06867981,ST-260
10,602. 장안동 사거리,3,30,37.57217407,127.07138824,ST-262
8,605. 신설동역8번출구,22,275,37.57419968,127.02649689,ST-265
15,606. 서울반도체고 앞,8,53,37.58462524,127.07028961,ST-266
15,607. 신이문역 2번출구,33,220,37.60271072,127.06786346,ST-267
10,608. 전농삼성아파트,12,120,37.58131027,127.05534363,ST-268
30,609. 제기2교,22,73,37.58774567,127.03738403,ST-269
10,610. 동대문중 교차로,22,220,37.57308578,127.05216217,ST-270
20,612. 시립동부병원 앞 사거리,21,105,37.57366562,127.03081512,ST-271
8,613. 신설동역 10번출구 앞,17,213,37.57527161,127.02346802,ST-272
23,614. 용두동 사거리,36,157,37.57768631,127.03101349,ST-273
25,615. 용두동 래미안허브리츠아파트 앞,32,128,37.57638168,127.03511047,ST-274
10,616. 서울시립대 정문 앞 A,3,30,37.58256149,127.05436707,ST-275
20,617. 청솔우성아파트 앞,35,175,37.57420349,127.05769348,ST-276
8,621. 전농초등학교 건너편,4,50,37.57489014,127.05353546,ST-389
15,622. 전농사거리 교통섬,33,220,37.57779312,127.05783081,ST-390
25,623. 서울시립대 정문 앞 B,0,0,37.58369827,127.05385590,ST-391
10,624. 전농동 동아아파트 앞,43,430,37.57418823,127.04589081,ST-392
17,626. 군자교 서측 녹지대,34,200,37.56115341,127.07096863,ST-394
10,627. 장안동삼거리 교통섬,32,320,37.57863235,127.07190704,ST-395
15,628. 휘봉고등학교 앞,30,200,37.58677673,127.06764221,ST-396
15,630. 동대문구 보건소,9,60,37.57485199,127.04030609,ST-397
15,631. 답십리역 1번출구,9,60,37.56818390,127.05127716,ST-398
8,633. 청량리 기업은행 앞,42,525,37.58049774,127.04472351,ST-400
24,634. 외국어대 정문 앞,13,54,37.59601974,127.05982971,ST-401
12,635. 시조사 앞,6,50,37.58751678,127.05277252,ST-402
9,636. 세종대왕기념관 교차로,18,200,37.59090042,127.04258728,ST-403
10,637. KAIST 경영대학 앞,0,0,37.59161377,127.04579163,ST-404
10,638. 서울시립대 정보기술관,10,100,37.58300781,127.06097412,ST-405
7,639. 서울시립대 후문,0,0,37.58504486,127.06027222,ST-406
6,640. 동대문경찰서 교차로,23,383,37.58255005,127.04460144,ST-407
10,641. 용두역 4번출구,21,210,37.57375336,127.03853607,ST-408
9,642. 신답역 사거리,14,156,37.57035446,127.04843140,ST-409
10,643. 동대문구민체육센터 (육교아래),41,410,37.56697083,127.07429504,ST-410
15,648. 장안동위더스빌옆,41,273,37.56669998,127.06242371,ST-1300
20,650. 중랑교사거리,31,155,37.59153366,127.06774139,ST-1302
10,652. 답십리 래미안엘파인아파트 입구,20,200,37.57653046,127.06594086,ST-1447
10,654. 전농동 텃골공원,9,90,37.57762146,127.05210876,ST-1449
10,656. 영휘원 교차로,21,210,37.58723831,127.04313660,ST-1628
10,660. 동의보감타워,11,110,37.57799911,127.03762817,ST-1632
15,661. 경희대학교 청운관,1,7,37.59460068,127.05197144,ST-1625
10,663. 외대앞역 3번출구,13,130,37.59489059,127.06302643,ST-1671
10,664. 서울시립대 건설공학관,6,60,37.58412933,127.05793762,ST-1758
11,665.이문동 쌍용아파트 정문,37,336,37.59960556,127.06864166,ST-2265
20,666.이문대성유니드아파트 앞,32,160,37.60362244,127.07083130,ST-2266
7,667.청량차도 육교 밑,6,86,37.58670807,127.04688263,ST-2267
10,669.청계한신휴플러스앞 삼거리,27,270,37.57214737,127.04460907,ST-2269
9,670.삼육서울병원 버스정류장,55,611,37.58967590,127.06151581,ST-2270
10,671.대광빌딩,2,20,37.57734299,127.02337646,ST-2271
17,672.대광고등학교,3,18,37.57875061,127.02402496,ST-2272
10,673.안암골벽산아파트(후문),12,120,37.58407974,127.03103638,ST-2273
15,674.고대앞사거리 교통섬,8,53,37.58655167,127.03314209,ST-2274
9,676.FITI시험연구원 앞,6,67,37.58143234,127.03547668,ST-2276
21,678.장안힐스테이트(아) 앞,54,257,37.57655716,127.07431030,ST-2278
10,679.전농SK아파트 앞,2,20,37.57787704,127.06168365,ST-2279
22,680.꿈마루어린이도서관 앞,22,100,37.59238434,127.05741119,ST-2280
14,681.서울특별시 동부교육지원청(육교),11,79,37.57983780,127.05637360,ST-2281
20,700. KB국민은행 염창역 지점 앞,6,30,37.54684830,126.87277222,ST-308
8,701. 목동사거리 부근,19,238,37.53280258,126.86392975,ST-309
20,702. 목4동주민센터 옆,45,225,37.53254318,126.86872864,ST-310
12,703. 오목교역 7번출구 앞,5,42,37.52362823,126.87524414,ST-311
14,704. 남부법원검찰청 교차로,1,7,37.52325439,126.86490631,ST-312
15,706. 신정네거리역,6,40,37.52188110,126.85175323,ST-313
15,708. 서울출입국관리사무소 앞,24,160,37.51897049,126.86996460,ST-315
20,709. 신정3동 현장민원실 앞,8,40,37.51158524,126.84156036,ST-316
10,710. 금옥여고보도육교,3,30,37.50971222,126.84416962,ST-317
20,711. 신일해피트리아파트 앞,3,15,37.51705933,126.84848785,ST-318
14,712. 강월초교입구 사거리,28,200,37.51699829,126.83831787,ST-319
20,713. 양서중학교 옆,5,25,37.53304672,126.82995605,ST-320
10,714. 한국SGI 양천문화회관 앞,5,50,37.53254700,126.83080292,ST-321
23,716.신정6동 주민센터 인근,4,17,37.51731873,126.86431885,ST-428
10,719. 홍익병원앞 교차로,13,130,37.53109741,126.86402893,ST-431
10,720. 서울강월초등학교 앞,2,20,37.51619720,126.83489990,ST-432
10,722. 경서농협 버스정류장(우리은행신정동지점방향),36,360,37.52151108,126.85738373,ST-993
15,723. SBS방송국,20,133,37.52916336,126.87274933,ST-994
10,724. 계남공원 입구 주출입구 좌측,14,140,37.51059723,126.85732269,ST-995
15,725. 양강중학교앞 교차로,0,0,37.52433395,126.85054779,ST-996
18,726. 목동3단지 시내버스정류장,48,267,37.53438950,126.86959839,ST-997
10,729. 서부식자재마트 건너편,16,160,37.51037979,126.86679840,ST-1000
10,731. 서울시 도로환경관리센터,29,290,37.52989960,126.87654114,ST-1002
10,733. 신정이펜하우스314동,12,120,37.51409912,126.83100128,ST-1004
10,734. 신트리공원 입구,37,370,37.51395035,126.85605621,ST-1005
10,735. 영도초등학교,64,640,37.53637695,126.87151337,ST-1006
10,736. 오솔길공원,11,110,37.52219009,126.83670044,ST-1007
20,737. 장수공원,26,130,37.52231216,126.84904480,ST-1008
13,739. 신월사거리,8,62,37.53699493,126.82728577,ST-1010
8,740. 으뜸공원,54,675,37.53636932,126.83171082,ST-1011
10,741. 화곡로 입구 교차로,3,30,37.53952026,126.82540131,ST-1012
10,742. 등촌역 5번 출구 뒤,1,10,37.55073166,126.86457825,ST-1013
22,743. 현대6차아파트 101동 옆,3,14,37.50889969,126.84268188,ST-1014
40,744. 신목동역 2번 출구,1,3,37.54384232,126.88254547,ST-1015
10,745. 강서초등학교,35,350,37.52228165,126.83969879,ST-1016
10,746. 목동2단지 상가,42,420,37.53650284,126.87774658,ST-1017
10,747. 목동3단지 상가,13,130,37.53458023,126.87564850,ST-1018
15,748. 목동운동장,18,120,37.53025055,126.87930298,ST-1019
10,749. 이대목동병원보도육교,0,0,37.53722763,126.88661194,ST-1350
10,750. 연의근린공원 건너편,33,330,37.51222992,126.83578491,ST-1398
10,752. 성원2차 아파트,14,140,37.54218292,126.86330414,ST-1400
10,754. 목동1단지아파트 118동 앞,52,520,37.54114151,126.87667847,ST-1495
7,755. 목동1단지아파트 상가 앞,31,443,37.53786850,126.88140869,ST-1496
15,756. 목동주차장,13,87,37.52667999,126.87616730,ST-1497
10,757. 신정이펜하우스 1단지아파트 입구 사거리,14,140,37.51427841,126.82874298,ST-1498
13,758. 한사랑교회 앞,20,154,37.51472092,126.85919952,ST-1499
10,759. 보아스아파트 앞,21,210,37.52407074,126.83860016,ST-1500
10,760. 잣절보도육교 아래,9,90,37.50682068,126.84429932,ST-1501
10,762. 오목로 무중력지대 앞,3,30,37.52474213,126.87766266,ST-1503
10,763. 목동11단지 아파트,7,70,37.51065826,126.85916138,ST-1504
12,765. 오목교역 3번출구,13,108,37.52477646,126.87548065,ST-1731
15,766. 신목동역 3번출구,1,7,37.54394913,126.88346100,ST-1736
10,767.신정숲속마을아파트,34,340,37.50574493,126.83631134,ST-1993
15,768.목동5단지아파트 501동,14,93,37.53566742,126.88158417,ST-1994
20,769.CBS방송국 앞,19,95,37.52785492,126.87467194,ST-1995
12,770.목동역5번출구,2,17,37.52571487,126.86486816,ST-1996
8,771.목동아파트 703동 앞,40,500,37.52820587,126.87016296,ST-1997
10,"773.염창역 3, 4번 출구 사이",11,110,37.54670715,126.87457275,ST-1999
11,774.등촌역 4번 출구 ,9,82,37.54950714,126.86721802,ST-2000
10,775.세종그랑시아 앞(102동),3,30,37.53837585,126.86383057,ST-2001
15,776.목마공원,23,153,37.53874207,126.88568115,ST-2002
10,777.신월6차보람아파트 앞,14,140,37.52988815,126.83500671,ST-2003
20,779. 신정1동 주민센터 앞,117,585,37.51854324,126.85388184,ST-2005
15,780.신정교 하부,46,307,37.51733780,126.87764740,ST-2006
24,781.신정보도육교 아래,90,375,37.51759338,126.87655640,ST-2007
20,782.서남병원 후문,3,15,37.51167297,126.83274078,ST-2008
24,"785.양천구청, 보건소 사잇길",3,13,37.51747513,126.86632538,ST-2011
9,786.목동아파트 8단지 상가동 앞,25,278,37.52007294,126.86830139,ST-2012
28,787.양천아파트 입구,50,179,37.50790405,126.86264801,ST-2013
15,788.양천구청역 2번출구 옆,1,7,37.51228714,126.86528015,ST-2014
15,791.현대하이페리온,17,113,37.52490234,126.86980438,ST-2016
20,792.목동트라팰리스 웨스턴에비뉴,0,0,37.52537155,126.87092590,ST-2017
15,793.목동5단지아파트 534동,32,213,37.53302002,126.87789917,ST-2039
10,794.양천문화회관,36,360,37.51686478,126.86296082,ST-2395
22,795.양천 해누리타운,5,23,37.51584244,126.86411285,ST-2396
10,796.목동아파트 14단지 B상가 앞,26,260,37.51466370,126.87194061,ST-2397
10,797.목동아파트 1422동 1434동 사잇길,54,540,37.51515579,126.87248993,ST-2398
15,800. 목월공원 앞,8,53,37.53243256,126.95474243,ST-322
9,802. 한강진역 2번 출구 앞,2,22,37.54115295,127.00221252,ST-324
9,805. 문배어린이공원 앞,12,133,37.53675842,126.97000122,ST-326
20,806. 전자랜드 본관 앞,0,0,37.53306580,126.96073151,ST-327
10,807. 서울역 12번 출구 앞,10,100,37.55227661,126.97268677,ST-328
10,808. 서빙고동 금호맨션 앞,0,0,37.52050400,126.98973846,ST-329
10,809. 한남 유수지 복개주차장,5,50,37.53016663,127.00743866,ST-330
10,810. 이태원지하보도,18,180,37.53841019,126.98664856,ST-331
20,811. 녹사평역1번출구,0,0,37.53507996,126.98538208,ST-332
15,813. 삼각지역 3번출구,13,87,37.53351212,126.97227478,ST-334
25,816. 신용산역 6번출구 앞,10,40,37.53014755,126.96848297,ST-435
9,817. 삼각지역 4번출구 앞,12,133,37.53345108,126.97173309,ST-436
12,818. 숙명여대 입구 교차로,21,175,37.54489517,126.96938324,ST-437
12,819. 선린인터넷 고등학교,7,58,37.54165268,126.97050476,ST-438
10,820. 청파동입구 교차로,1,10,37.54902649,126.97194672,ST-439
10,822. 이촌1동 마을공원,10,100,37.52202606,126.96618652,ST-440
10,823. 효창동주민센터 앞,5,50,37.54232025,126.96195984,ST-441
15,825. 서빙고동 주민센터 앞,2,13,37.52033615,126.99426270,ST-442
20,826. 서울역 서부교차로2,45,225,37.55536652,126.96864319,ST-946
14,827. 국군복지단,1,7,37.54188538,126.97966003,ST-1324
7,828. 숙대입구역 8번,8,114,37.54407883,126.97200012,ST-1325
40,829. 한강대교 북단 교차로,8,20,37.52293015,126.96169281,ST-1326
20,832. 이촌1동 주민센터 뒤,23,115,37.52128220,126.97346497,ST-1339
9,834. 효창공원앞역 3번출구 뒤,9,100,37.53900146,126.96181488,ST-1341
9,835. 남영역 건너편,18,200,37.54198074,126.97154236,ST-1342
15,836. 현대자동차서비스 앞,5,33,37.53142166,126.95149994,ST-1343
10,837. 한남나들목 입구,4,40,37.52898788,127.00662231,ST-1344
8,838. 숙대입구역 4번출구,9,113,37.54446030,126.97238922,ST-1376
10,839. 보광동 삼성리버빌아파트 앞,1,10,37.52400970,127.00144958,ST-1441
10,840. 용산 파크타워 앞,3,30,37.52365112,126.97026825,ST-1442
25,841. 신용산역 1번 출구,2,8,37.52960968,126.96887207,ST-1443
19,843. 이태원관광특구B(용산구청쪽),0,0,37.53379822,126.98867035,ST-1445
15,844. 이촌2동 동원베네스트 아파트 앞,27,180,37.52714920,126.95516205,ST-1446
16,845. 용산 선인상가,1,6,37.53269958,126.96437836,ST-1615
15,846. 용산중학교,8,53,37.54650116,126.98094940,ST-1721
8,848. 삼각지12번 출구,1,13,37.53488922,126.97562408,ST-2172
20,849. 삼각지 자이아파트,29,145,37.53607941,126.97341919,ST-2173
15,850. KCC용산월츠타워 ,8,53,37.53739929,126.96892548,ST-2174
10,851.효창 푸르지오 앞,10,100,37.54047775,126.95811462,ST-2175
30,852. 청암자이아파트 앞,25,83,37.53452682,126.94718170,ST-2176
19,853.용산역 맞은편,3,16,37.52841568,126.96595001,ST-2177
10,854.HID 유족동지회 앞,10,100,37.53850937,127.00148010,ST-2178
10,855.이촌역5번출구 앞,1,10,37.52272415,126.97277069,ST-2179
10,857. 현대 안성타워,0,0,37.53508759,126.99797058,ST-2181
10,858.녹사평역3번 출구,0,0,37.53440857,126.98689270,ST-2182
10,859.남산공원 야외식물원 앞,2,20,37.54188538,126.99586487,ST-2183
22,860.LG한강 자이아파트 앞,29,132,37.52074814,126.97082520,ST-2184
10,863.이촌역2번 출구,2,20,37.52177048,126.97700500,ST-2187
10,864.순천향대학병원(한남오거리),2,20,37.53514099,127.00600433,ST-2188
10,866.브라운스톤 남산아파트,16,160,37.55154800,126.97686005,ST-2190
10,867.서빙고역 광장(1번출구),6,60,37.51990891,126.98923492,ST-2191
10,869.노들섬 동측 앞,1,10,37.51729584,126.95914459,ST-2239
10,870.노들섬 서측 앞,14,140,37.51731873,126.95829773,ST-2240
20,900. 은평예술회관,4,20,37.60394287,126.92769623,ST-448
10,902. 진관동 은빛초등학교,3,30,37.64310837,126.91822052,ST-450
19,903. 은평뉴타운 아이파크,19,100,37.64586639,126.92739105,ST-451
16,904. 은평뉴타운 푸르지오,13,81,37.64867401,126.93070221,ST-452
10,905. 구파발역 2번출구,14,140,37.63623428,126.91899872,ST-453
8,906. 연신내역 5번출구,12,150,37.61721039,126.91957855,ST-454
10,907. CJ 드림시티,35,350,37.59949493,126.91698456,ST-455
10,908. 구산역 4번출구,2,20,37.61318588,126.91735077,ST-456
10,909. 백련산 힐스테이트 3차,21,210,37.58699417,126.92288208,ST-457
10,911. 은평평화공원(역촌역4번출구),7,70,37.60558319,126.92293549,ST-459
20,912. 응암오거리,26,130,37.58966064,126.91694641,ST-460
15,913. 이마트 버스정류장(서부경찰서 방면),0,0,37.60070038,126.92012787,ST-461
20,914. 새절역 2번출구,25,125,37.59080887,126.91368866,ST-462
10,915. 증산역 4번출구,15,150,37.58438110,126.90989685,ST-463
13,916. 평생학습관 앞,11,85,37.60784912,126.92132568,ST-464
10,917. 녹번역 3번출구,0,0,37.60074615,126.93501282,ST-465
10,919. 서울혁신파크,5,50,37.60702515,126.93331146,ST-467
8,921. 신도고등학교,6,75,37.63001633,126.91902924,ST-469
10,922. 연신내역 4번출구,12,120,37.61780167,126.92196655,ST-470
10,923. 국민은행 연서지점,4,40,37.62094879,126.92563629,ST-471
8,925. 불광역 2번출구,0,0,37.60956573,126.93097687,ST-473
10,927. 연신내역 3번출구 인근,10,100,37.61785507,126.92252350,ST-475
10,928. 은평역사한옥박물관,1,10,37.64131546,126.93804169,ST-476
7,930. 구 서부경찰서 건너편,7,100,37.60166168,126.92030334,ST-478
19,931. 역촌파출소,48,253,37.60473633,126.91533661,ST-479
20,932. 예일여중,2,10,37.61000443,126.91639709,ST-480
15,933. 역촌종합시장 버스정류장(예일여고 방면),18,120,37.61248398,126.91487885,ST-481
10,937. 상림마을 롯데캐슬2단지 옆,4,40,37.64585114,126.92379761,ST-1023
10,938. 금암 문화공원,14,140,37.64468384,126.91845703,ST-1024
15,939. 은평구청 교차로,3,20,37.60169983,126.92742157,ST-1025
13,941. 은평뉴타운 도서관,1,8,37.63722229,126.93330383,ST-1027
9,942. 상림마을 생태공원,5,56,37.64408112,126.92928314,ST-1028
8,943. 은평구청 보건소,5,63,37.60240173,126.92864990,ST-1029
10,945. 기자촌 사거리 A,0,0,37.63414001,126.93234253,ST-1031
16,946. 독바위역 ,3,19,37.61843872,126.93288422,ST-1032
10,947. 연신내 선일하이츠빌 정류소,0,0,37.62266922,126.91999054,ST-1033
10,948. 디지털미디어 시티역 4번출구(DMC역),0,0,37.57720184,126.90235138,ST-1034
6,949. 연신내역 1번 출구 ,2,33,37.61978149,126.92080688,ST-1035
10,950. 구산역 2번 출구 예일여고 버스정류장,17,170,37.60980225,126.91679382,ST-1036
10,952. 서울연신중학교,2,20,37.62265015,126.92524719,ST-1038
10,953. 서울연신초등학교,2,20,37.62577820,126.92881775,ST-1039
10,954. 은평뉴타운구파발9단지,30,300,37.64260864,126.92147827,ST-1329
9,956. 응암시장교차로,15,167,37.59441376,126.91801453,ST-1331
13,958. 본 서부병원 버스정류장(은평 세무서 방면),6,46,37.60036087,126.92281342,ST-1479
10,959. 구파발10단지 인근,22,220,37.64318466,126.91509247,ST-1480
15,960. 구파발역 환승센터,18,120,37.63825226,126.91945648,ST-1481
10,962. 은평뉴타운 힐데스하임,2,20,37.63925934,126.91890717,ST-1483
13,963. 불광롯데캐슬아파트 앞,6,46,37.61280060,126.93217468,ST-1484
10,964. 북한산힐스테이트 7차아파트,7,70,37.61654282,126.92512512,ST-1485
10,965. 서울특별시 은평병원,2,20,37.59347916,126.92318726,ST-1486
10,966. 서울혁신파크1,7,70,37.60944748,126.93467712,ST-1487
13,967. 서울혁신파크2,3,23,37.60849762,126.93199921,ST-1488
7,968. 은평뉴타운 상림마을 13단지,3,43,37.64208984,126.92941284,ST-1489
9,969. 은평 지웰테라스,4,44,37.64339447,126.93213654,ST-1490
20,971. 역촌 센트레빌 아파트,2,10,37.60232925,126.90654755,ST-1674
10,973.제각말푸르지오 5-1단지 아파트,1,10,37.63734818,126.93584442,ST-2241
10,974.연신초등학교옆 마을마당,0,0,37.62672043,126.92901611,ST-2242
10,975.백련산 힐스테이트상가앞,14,140,37.59036255,126.92301178,ST-2243
10,976.진관고등학교앞,10,100,37.64350891,126.92410278,ST-2244
10,977.신도중학교앞,1,10,37.63310242,126.93150330,ST-2245
10,978.녹번 힐스테이트상가앞,2,20,37.60100937,126.93592834,ST-2246
10,979.원풍빌라앞,1,10,37.59186172,126.90608215,ST-2247
10,982. 녹번초등학교(서오릉로),2,20,37.60412598,126.92508698,ST-2250
9,984.상신초등학교앞 버스정류장,9,100,37.59580994,126.91026306,ST-2252
10,985. 은평세무서 버스정류장(은평구청 방면),9,90,37.60119247,126.92638397,ST-2253
7,989. 신응교(가좌로) 앞,11,157,37.59181213,126.91483307,ST-2257
10,991.흥국사 정류장,5,50,37.65676880,126.94200897,ST-2259
10,992.북한산입구 정류장,4,40,37.65828705,126.94529724,ST-2260
15,993.은평뉴타운 은뜨락아파트앞,0,0,37.63028717,126.91956329,ST-2261
10,994.북한산생태공원입구(교통섬),0,0,37.61050797,126.93853760,ST-2262
10,995.은평다목적체육관,2,20,37.63140869,126.92540741,ST-2263
10,996.응암역2번출구 국민은행 앞,12,120,37.59996796,126.91572571,ST-2264
15,1001. 광진교 남단 사거리(천호공원 방면),12,80,37.54179382,127.12474823,ST-485
10,1002. 해공공원(천호동),27,270,37.54526520,127.12593842,ST-486
20,1003. 해공도서관앞,16,80,37.54395676,127.12548828,ST-487
10,1004. 삼성광나루아파트 버스정류장,38,380,37.55332947,127.12886810,ST-488
10,1006. 롯데캐슬 115동앞,2,20,37.55486679,127.14279938,ST-490
14,1007.암사동 선사유적지,28,200,37.55955887,127.13087463,ST-491
9,1008. 암사역 3번출구(국민은행앞),45,500,37.54935455,127.12708282,ST-492
20,1009. 천호역4번출구(현대백화점),2,10,37.53866577,127.12424469,ST-493
20,1010. 강동세무서,35,175,37.53450775,127.13840485,ST-494
20,1011. LIGA 아파트 앞,22,110,37.53474426,127.13528442,ST-495
15,1012. 천호역효성해링턴타워 앞,3,20,37.53600693,127.12272644,ST-496
15,1013. 강동구청역 1번 출입구,0,0,37.53071594,127.12098694,ST-497
13,1015. 샛마을 근린공원,12,92,37.55003738,127.14691162,ST-499
10,1016. 해뜨는 주유소옆 리엔파크 109동앞,5,50,37.55939865,127.17118073,ST-500
20,1017. 둔촌고교입구 교차로(길동주민센터 방면),23,115,37.53544617,127.14518738,ST-501
15,1018. 둔촌 주공 GS 맞은편,40,267,37.52425385,127.13528442,ST-830
10,1019. 다성이즈빌아파트(호원대 대각선 맞은편),75,750,37.52679443,127.13005829,ST-502
15,1020. 강동경찰서,41,273,37.52825165,127.12680054,ST-503
15,1021. 강일동 리슈빌 빌딩앞,93,620,37.56427383,127.17397308,ST-504
20,1022. 길동 사거리(초소앞),53,265,37.53377914,127.13799286,ST-505
22,1023. 한국종합기술사옥 앞,2,9,37.54998398,127.17470551,ST-1040
10,1024.  강동구청 앞,34,340,37.52929688,127.12315369,ST-1041
10,1025. 상일초등학교,47,470,37.54684067,127.17251587,ST-1042
20,1027. 프라자 아파트 앞,11,55,37.53596115,127.14781952,ST-1044
10,1028. 포레스 주상복합 빌딩,6,60,37.53310776,127.12277222,ST-1045
7,1029. 성내어울터,2,29,37.53655624,127.12553406,ST-1046
15,1030. 미호 플랜트 앞,7,47,37.52703094,127.12206268,ST-1047
15,1031. 올림픽로 836(아리수로),116,773,37.55604172,127.13093567,ST-1048
20,1032. 선사고등학교,74,370,37.55672836,127.13626099,ST-1049
17,1033. 고덕동 아남아파트,32,188,37.55793381,127.14476776,ST-1050
15,1034. 고덕동 래미안 힐스테이트,4,27,37.56187820,127.15078735,ST-1051
10,1036. 고덕동 주양쇼핑,1,10,37.55199051,127.15331268,ST-1053
10,1037. 강일리버파크 6단지,57,570,37.56256485,127.17761230,ST-1054
10,1038. 강일 다솜 어린이 공원,61,610,37.56863785,127.17480469,ST-1055
7,1039. 고덕초등학교,21,300,37.56129837,127.16784668,ST-1056
10,1041. 묘곡초등학교,5,50,37.55916214,127.15332031,ST-1058
10,1042. 강일리버파크 2~5단지,42,420,37.56854630,127.17700958,ST-1059
15,1044. 굽은다리역,20,133,37.54540634,127.14267731,ST-1061
13,1048. 둔촌어린이공원,27,208,37.53099442,127.14237213,ST-1370
10,1049. 강일리버파크 10단지,74,740,37.56120300,127.18026733,ST-1371
15,1050.  둔촌역 3번 출입구,2,13,37.52678299,127.13557434,ST-1420
15,"1051. 강일중,선사고 버스정류장(신암중학교 방면)",65,433,37.55483627,127.13732147,ST-1421
11,1053. 동명근린공원 진입로 (아리수로),11,100,37.56254578,127.16448212,ST-1594
10,1056. 강일리버파크 7~11단지,29,290,37.56335449,127.17905426,ST-1597
15,1057. 능골근린공원,26,173,37.55580902,127.17374420,ST-1598
12,1058. 고덕숲 아이파크 1,3,25,37.55348206,127.16505432,ST-1623
15,1059. 래미안 강동팰리스(102동),20,133,37.53822708,127.13174438,ST-1626
6,1060. 천일초교 사거리,9,150,37.54467010,127.13267517,ST-1620
8,1061. 천호초교 입구 사거리(일주빌딩),8,100,37.54689789,127.13466644,ST-1621
10,1063.강동롯데캐슬퍼스트 아파트(관리동),7,70,37.55666351,127.14273834,ST-1762
10,1064.중앙보훈병원역 1번출구,0,0,37.52779388,127.14764404,ST-1763
10,1065.보훈병원 후문옆(더 원커피),0,0,37.53120804,127.14926910,ST-1764
10,1066.생태공원앞 교차로(조명탑),0,0,37.53776550,127.15201569,ST-1765
10,1067.한영중고앞사거리,5,50,37.54903412,127.15605164,ST-1766
10,1068.명일파출소,4,40,37.55364990,127.15622711,ST-1767
10,1070.(시립)고덕평생학습관,0,0,37.55570221,127.15792084,ST-1831
22,1072.고덕역 5번출구,0,0,37.55486298,127.15372467,ST-1833
7,1073. SSTS 몰 앞,21,300,37.54114532,127.14105225,ST-1834
15,1074.대명초교입구 사거리,11,73,37.54683685,127.14916229,ST-1835
10,1075.천동초교 삼거리,45,450,37.54136276,127.13718414,ST-1836
10,1076. 천동초교입구사거리 버스정류장(십자성마을 방면),24,240,37.53989410,127.14103699,ST-1837
15,1077.강동역 1번출구 앞,1,7,37.53627014,127.13246918,ST-1838
25,1078.둔촌사거리,20,80,37.52197647,127.13362122,ST-1839
10,1079.강일동입구교차로,31,310,37.56184387,127.17084503,ST-1840
10,1080.천호지하주차장 5번 출입구,8,80,37.53683090,127.12841797,ST-1841
20,1081.트레빌빌딩,1,5,37.53699875,127.12953186,ST-1842
15,1083.광문고교사거리(아이파크),2,13,37.56036758,127.15659332,ST-1844
20,1084. 윤선생빌딩(JYP사옥),21,105,37.52392960,127.12912750,ST-1687
20,1085.래미안 솔베뉴(고덕로),6,30,37.55456924,127.14587402,ST-1845
10,1086.래미안 솔베뉴(구천면로),5,50,37.55059814,127.14545441,ST-1846
12,1088.풍납사거리(강동),5,42,37.52812195,127.11952209,ST-1848
15,1089.고덕 래미안힐스테이트(201동),2,13,37.56060028,127.14669800,ST-1849
17,1090.상일동역 2번출구 앞,19,112,37.55678940,127.16614532,ST-1850
10,1101. 상사마을 버스정류장(아라대교방면),13,130,37.58161163,126.79859924,ST-507
10,1102. 방화사거리 마을버스 버스정류장,15,150,37.57364273,126.81180573,ST-508
10,1103. 방화역 4번출구앞,31,310,37.57710648,126.81199646,ST-831
10,1105. 방화근린공원,16,160,37.58162308,126.81265259,ST-509
18,1106. 신방화사거리,49,272,37.57256317,126.81642151,ST-824
8,1108. 공항시장역 2번출구 뒤,14,175,37.56387329,126.81060791,ST-510
6,1109. 공항시장역 4번출구,2,33,37.56334686,126.81048584,ST-511
15,1110. 공항중학교앞,17,113,37.56220245,126.81624603,ST-828
20,1111. 마곡엠밸리6_7단지 마곡중학교,7,35,37.56698227,126.82180023,ST-512
15,1112. 마곡엠밸리4단지 정문,4,27,37.56857681,126.82477570,ST-513
15,1113. 서남환경공원 버스정류장,54,360,37.57312393,126.82238770,ST-514
10,1117. 등촌5단지아파트 버스정류장,5,50,37.55819702,126.84426117,ST-834
10,1118. 증미역 3번출구뒤(등촌두산위브센티움오피스텔),27,270,37.55746078,126.86145782,ST-516
6,1119. 염창동 한마음아파트 앞,13,217,37.55425262,126.86756134,ST-517
25,1120. 대림경동아파트앞,46,184,37.56478500,126.85464478,ST-518
15,1121. 가양레포츠센터 앞,12,80,37.55947876,126.86437988,ST-519
6,1124. 발산역 6번 출구 뒤,12,200,37.55817795,126.83845520,ST-522
7,1126. 우장산역 1번출구옆(우장산아이파크105동앞),11,157,37.54890823,126.83656311,ST-523
10,1127. 화곡역 버스정류장,0,0,37.54098129,126.83854675,ST-524
10,1128. 화곡역 6번출구,4,40,37.54141235,126.84022522,ST-829
7,1129. 화곡역 1번 출구 앞,2,29,37.54209900,126.84021759,ST-525
7,1130. 화곡본동시장 버스정류장,5,71,37.54275131,126.84262085,ST-526
10,1132. 등촌역 7번출구,2,20,37.55110931,126.86370850,ST-528
16,1135. 강서구의회,24,150,37.54653168,126.86254883,ST-530
8,1136. 등촌2파출소,0,0,37.54456711,126.86196899,ST-531
10,1137. 등촌2동주민센터,16,160,37.54126358,126.86337280,ST-532
8,1139. 용문사 버스정류장,5,63,37.53852081,126.86343384,ST-533
17,1140. 목동사거리 버스정류장,14,82,37.53139877,126.86360931,ST-534
20,1141. 곰달래 문화복지센터 A,109,545,37.52906036,126.84848022,ST-535
10,1145. 곰달래 문화복지센터 B,22,220,37.52891922,126.84808350,ST-536
10,1148. 볏골공원,14,140,37.54146957,126.84477997,ST-538
13,1149. 신방화역환승주차장,4,31,37.56728363,126.81827545,ST-975
7,1150. 송정역 1번출구,21,300,37.56153107,126.81069946,ST-1062
30,1151. 마곡역1번출구,0,0,37.56020737,126.82414246,ST-1063
36,1152. 마곡역교차로,3,8,37.55831146,126.82652283,ST-1064
32,"1153. 발산역 1번, 9번 인근 대여소",1,3,37.55894852,126.83717346,ST-1065
10,1155. 기쁜우리복지관,24,240,37.56925964,126.84841919,ST-1067
8,1157. 강서구청,58,725,37.55065918,126.84976959,ST-1069
20,1158. 가양역 8번출구,8,40,37.56103516,126.85481262,ST-1249
20,1159. 서서울모터리움 앞,24,120,37.56585312,126.84659576,ST-1250
20,1160. 양천향교역 7번출구앞,30,150,37.56768036,126.84089661,ST-1251
10,1161. 강서면허시험장 앞,4,40,37.54969406,126.81966400,ST-1252
10,1162. 공항초등학교건너편,36,360,37.56267929,126.82047272,ST-1253
14,1163. 방화동강서기동대앞,41,293,37.57049942,126.82008362,ST-1254
20,1165. 마곡중학교 후문,18,90,37.56844711,126.82164764,ST-1338
20,1166. 강서구립등빛도서관,54,270,37.56256866,126.84246063,ST-1351
25,1167. 마곡수명산파크3단지 교차로,35,140,37.55350876,126.82586670,ST-1352
14,1168. 마곡엠밸리10단지 앞,25,179,37.56029129,126.81875610,ST-1402
8,1169. 염창역 1번 출구,1,13,37.54719925,126.87448883,ST-1506
11,1170. 강서구보건소,11,100,37.54917908,126.86879730,ST-1507
8,1171. 염창동 새마을금고 건너편,25,313,37.55004883,126.87316132,ST-1508
8,1172. 가양3동 주민센터,35,438,37.56124878,126.86058044,ST-1509
15,1173. 강서구청사거리(SH타워),40,267,37.55673599,126.85307312,ST-1510
9,1174. 강서구청사거리(부민병원),5,56,37.55661392,126.85116577,ST-1511
15,1175. 대한항공 인력개발센터,22,147,37.55437851,126.85753632,ST-1512
15,1177. 수명중․고교,15,100,37.55010986,126.82367706,ST-1514
10,1178. 개화산역 2번 출구,7,70,37.57247162,126.80616760,ST-1515
15,1180. 마곡엠밸리 15단지(1502동) 건너편,14,93,37.55746841,126.82971954,ST-1517
10,1181. 농수산식품공사 (강서지사),4,40,37.55104446,126.81849670,ST-1518
20,1182. KBS 스포츠월드,18,90,37.55687714,126.84880829,ST-1519
10,1183. 강서대학교,19,190,37.54832077,126.85340118,ST-1520
26,1184. 마곡13단지,91,350,37.55644989,126.81597900,ST-1645
20,1185. 등촌9단지,10,50,37.56290054,126.84947205,ST-1646
15,1186. 송정중학교,55,367,37.55472946,126.81609344,ST-1647
15,1187. 강서수산물도매시장,16,107,37.55302048,126.81836700,ST-1676
8,1188. 롯데중앙연구소,17,213,37.57138062,126.82833862,ST-1708
14,1190. 마곡역 교차로(2번출구),0,0,37.56050110,126.82665253,ST-1709
13,"1191. 마곡역 버스정류장(마곡나루역1번출구, 웰튼병원 방면)",0,0,37.56024170,126.82716370,ST-1689
20,1192. 마곡수명산파크 209동 건너편,39,195,37.55545044,126.82689667,ST-1710
51,1193. 마곡센트럴타워 1차,8,16,37.55947113,126.83207703,ST-1688
24,1195. 코오롱One&Only타워,1,4,37.56412888,126.83431244,ST-1712
11,1196. 서울식물원(문화센터) 건너편,6,55,37.56824112,126.83583069,ST-1713
20,1197. 엠펠리체 호텔 건너편,6,30,37.56024170,126.83580780,ST-1714
31,1198. LG 사이언스파크,0,0,37.56254959,126.82743835,ST-1715
13,1199. 우장산역 3번출구,2,15,37.54782104,126.83612823,ST-1694
10,1200. 개화광역환승센터,11,110,37.57844925,126.79897308,ST-1695
15,1201. 가락시장역 3번 출구,3,20,37.49317932,127.11854553,ST-838
20,1203. 밀리아나2빌딩 앞,13,65,37.49372864,127.12062073,ST-737
10,1204. 거여역 3번출구,9,90,37.49334335,127.14472961,ST-930
15,1205. 종합운동장역 4번출구,0,0,37.51042938,127.07137299,ST-539
20,1206. 9호선종합운동장역 9번출구,0,0,37.51128006,127.07823944,ST-540
6,1207. 마천중앙시장,21,350,37.49975586,127.15250397,ST-738
25,1208. 풍납현대아파트쉼터,33,132,37.52974701,127.11996460,ST-541
20,1209. 잠실나루역 (2번 출구 쪽),1,5,37.52045059,127.10420227,ST-542
30,1210. 롯데월드타워(잠실역2번출구 쪽),1,3,37.51312637,127.10095978,ST-891
10,1212. 송파역 2번 출구앞,10,100,37.49941254,127.11286926,ST-839
12,1213. 백토공원 앞,2,17,37.50831985,127.13321686,ST-543
10,1214. 오금역 7번 출구 인근,2,20,37.50259399,127.12764740,ST-740
15,1215. 올림픽공원역 1번출구 앞,0,0,37.51657104,127.13153839,ST-544
15,1217. 송파파인타운 7단지,6,40,37.47930527,127.12979889,ST-545
12,1218. 방이역 4번출구,6,50,37.50896835,127.12583923,ST-892
15,1220. 잠실근린공원,47,313,37.50569153,127.08403778,ST-546
9,1221. 삼전역 4번출구,15,167,37.50419998,127.08753204,ST-933
23,1222. 잠실새내역 5번 출구 뒤,5,22,37.51198196,127.08505249,ST-547
15,1224. 아시아지하보도 2번 출구,3,20,37.51216888,127.07893372,ST-548
10,1226. 잠실4동 주민센터 옆,35,350,37.52007675,127.11236572,ST-894
10,1227. 거여역 8번출구 뒤,7,70,37.49312592,127.14382172,ST-895
10,1228. 마천사거리 ,6,60,37.49769974,127.14620209,ST-896
15,1229. 송파체육문화회관 앞,9,60,37.49068832,127.14312744,ST-549
10,1230. 송파중학교 정문,1,10,37.49567032,127.13059235,ST-897
13,1231. 잠실역 6번출구,1,8,37.51408768,127.09902954,ST-840
10,1232. 잠실주공 521동 건너편,0,0,37.51184082,127.09568787,ST-550
9,1233. 잠실3거리(갤러리아팰리스),6,67,37.51050949,127.09336853,ST-551
14,1235. 잠실트리지움310동 옆,17,121,37.50887299,127.08716583,ST-553
13,1239. 문정 법조단지3,0,0,37.48084259,127.11801147,ST-899
10,1240. 문정 법조단지4,0,0,37.48057556,127.11856842,ST-900
10,1241. 문정 법조단지5,4,40,37.48123932,127.11979675,ST-901
10,1242. 문정 법조단지6,4,40,37.48163223,127.11916351,ST-902
29,1243. 문정 법조단지7,2,7,37.48453140,127.12016296,ST-903
11,1244. 문정 법조단지8,12,109,37.48153687,127.12212372,ST-904
10,1245. 문정 법조단지9,1,10,37.47946548,127.12532806,ST-905
30,1246. 문정 법조단지10,0,0,37.47750854,127.12632751,ST-906
15,1247. 문정 법조단지11,2,13,37.47882080,127.12351227,ST-907
25,1248. 방이초등학교,30,120,37.51396179,127.12167358,ST-908
10,1250.문정2동 주민센터,2,20,37.48987198,127.11083984,ST-981
10,1251. 석촌역 2번출구,19,190,37.50593185,127.10774994,ST-1070
10,1253. 오금역 3번 출구 뒤,6,60,37.50165176,127.12818146,ST-1072
8,1256. 문정현대아파트 교차로,5,63,37.49113083,127.12580872,ST-1075
20,1257. 가락시장역 사거리,2,10,37.49209976,127.11775208,ST-1076
10,1258. 가락미륭아파트 앞,0,0,37.49319839,127.12899780,ST-1077
20,1259. 방이역 1번출구,6,30,37.50898361,127.12659454,ST-1078
8,1260. 방이동 한양3차아파트 옆,4,50,37.50630188,127.12139893,ST-1079
10,1262. 송파여성문화회관 앞,51,510,37.50580215,127.10971832,ST-1081
10,1263. 장지공영차고지,6,60,37.48054123,127.13701630,ST-1082
8,1264. 천호역 10번 출구 앞,2,25,37.53858185,127.12280273,ST-1083
10,1265. 문정동 근린공원,15,150,37.48598862,127.12476349,ST-1084
10,1266. 문정동 글샘 공원,3,30,37.47880936,127.12000275,ST-1085
14,1267. 올림픽공원 남2문 앞,4,29,37.51424026,127.12306976,ST-1086
15,1268. 몽촌토성역 1번출구 옆,7,47,37.51728821,127.11419678,ST-1087
10,1269. 리센츠아파트 ,14,140,37.51194382,127.09121704,ST-1088
15,1271. 송파도서관,2,13,37.49998474,127.13539124,ST-1089
20,1274. 영파여고 앞,3,15,37.53284836,127.12104797,ST-1092
15,1275. 거여초등학교 옆,26,173,37.50458908,127.13936615,ST-1367
15,1277. 성내7교,22,147,37.50562668,127.13642120,ST-1408
16,1278. 송파구청 교차로,0,0,37.51579666,127.10681915,ST-1409
10,1279. 마천금호어울림 1차아파트 건너편,5,50,37.49751663,127.15467834,ST-1410
10,1282. 송파소방서 맞은편(성내4교),35,350,37.49987411,127.14147949,ST-1413
8,1283. 오금공원 사거리,0,0,37.50541306,127.13169098,ST-1414
10,1285. 위례별 유치원 뒤,3,30,37.47747040,127.14459229,ST-1416
10,1286. 위례중앙푸르지오 1단지 앞,3,30,37.47437668,127.14067078,ST-1417
8,1287. 위례아이파크 101동 맞은편,12,150,37.47746658,127.14151001,ST-1418
15,1288. 문정중교 사거리,9,60,37.48799896,127.13108826,ST-1419
10,1289. 풍납토성 서성벽터B,15,150,37.53147125,127.11109161,ST-1422
10,1290. 위례송파꿈에그린아파트24단지 앞 성벽 다리 밑,19,190,37.47458267,127.13754272,ST-1579
30,1291. 서울체육고등학교 앞,4,13,37.52193832,127.13186646,ST-1580
14,1293. 석촌호수 서호 사거리,32,229,37.50656128,127.09655762,ST-1582
8,1295. 잠실역 8번출구,0,0,37.51396179,127.10030365,ST-1584
10,1296. 석촌호수교차로 (송파나루근린공원 앞),0,0,37.50867844,127.10343170,ST-1585
15,1297. 석촌호수교차로(동호 팔각정 앞),0,0,37.50920105,127.10411835,ST-1586
15,1299. 송파소방서 (방이119안전센터),6,40,37.51987839,127.13671112,ST-1588
15,1300. 오륜사거리,15,100,37.50693893,127.13922119,ST-1589
5,1302. 한성대입구역6번출구 뒤,1,20,37.58876419,127.00630951,ST-825
10,1303. 돈암초교 입구,10,100,37.59169388,127.01249695,ST-931
10,1304. 만해공원,2,20,37.59440231,126.99230957,ST-826
15,1305. 성북구청,26,173,37.58932877,127.01643372,ST-947
10,1306. 한성대입구역2번출구,6,60,37.58844757,127.00670624,ST-842
16,1308. 안암로터리 버스정류장 앞,9,56,37.58259201,127.02897644,ST-827
8,1314. 정릉꿈에그린1단지 201동 앞,1,13,37.60243988,127.01168823,ST-559
10,1315. 고려사대부속중고 정문,1,10,37.60776138,127.00328064,ST-560
10,1316. 고려사대부속중고 건너편 ,0,0,37.60726166,127.00283813,ST-562
14,1318. 길음역 3번출구 뒤,7,50,37.60308456,127.02478790,ST-563
10,1319. 종암박스파크,57,570,37.60301971,127.03329468,ST-564
14,1321. 국민은행 종암동지점 앞,30,214,37.59328842,127.03666687,ST-655
10,1322. 래미안라센트아파트 103동 앞,40,400,37.59806824,127.03927612,ST-565
10,1325. 상월곡역 4번출구,6,60,37.60580826,127.04773712,ST-571
10,1326. 상월곡역 1번출구,11,110,37.60606766,127.04731750,ST-572
10,1327. 상월곡역 3번출구,33,330,37.60734177,127.05068207,ST-574
10,1328. 월곡역 3번출구,3,30,37.60262680,127.04163361,ST-910
20,1333. 석관초등학교 앞,56,280,37.61029053,127.05888367,ST-579
10,1334. 석관동주민센터 앞,27,270,37.61299896,127.06130981,ST-580
9,1336. 성북3교 위,10,111,37.59171295,127.01355743,ST-1200
13,1337. 돈암성당 옆,26,200,37.59039307,127.01716614,ST-1201
15,1338. 용문2교 옆,11,73,37.58701324,127.02092743,ST-1202
9,1339. 삼성전자서비스 성북센터,33,367,37.61057281,127.03366852,ST-1203
11,1340. 광운초등학교 앞,34,309,37.61784363,127.05500031,ST-1204
10,1342. 성북쉼터 앞,1,10,37.59261703,126.99793243,ST-1206
8,1343. 한성대7번출구 앞,0,0,37.58924866,127.00737762,ST-1207
10,1344. 아리랑시네센터 앞,0,0,37.60028839,127.01370239,ST-1208
10,1346. 길음8골어린이공원 옆,11,110,37.60897827,127.02024841,ST-1210
10,1347. 길음래미안아파트817동 상가 앞,5,50,37.60710526,127.02149963,ST-1211
12,1348. 성북제일새마을금고 본점 앞,29,242,37.60475159,127.02275848,ST-1212
10,1349. 월계2교 버스정류장 앞,39,390,37.62140656,127.05197144,ST-1213
8,1351. 안암2교 옆,17,213,37.57944870,127.02419281,ST-1215
8,1352. e 편한세상 보문아파트 내,4,50,37.58388138,127.01709747,ST-1216
8,1353. 금호어울림센터힐 내,8,100,37.60083008,127.02355194,ST-1217
22,1354. 고려대학교 2번출구,31,141,37.59071350,127.03619385,ST-1317
10,1357. 북한산보국문역,3,30,37.61207199,127.00813293,ST-1383
7,1358. 정릉도서관 앞,9,129,37.60478973,127.01058197,ST-1384
10,1360. 정릉역,12,120,37.60309601,127.01350403,ST-1386
20,1361. 홍익중고 입구,6,30,37.59296799,127.00223541,ST-1424
25,1363. 보문4교 인근,56,224,37.58375168,127.02194977,ST-1455
10,1364. 성북동 치안센터 앞,7,70,37.59017181,127.00408936,ST-1456
10,1365. 선잠단지 앞,2,20,37.59336090,126.99909210,ST-1457
10,1366. 일신초등학교 옆,25,250,37.59972000,127.04038239,ST-1458
10,1367. 길음문화복합미디어센터,25,250,37.60429764,127.02261353,ST-1459
10,1368. 성신여대입구 교차로,31,310,37.59139633,127.02015686,ST-1460
10,1370. 복자사랑 피정의 집,0,0,37.59453964,126.99520874,ST-1634
20,1372. KEB은행 고대점,8,40,37.58644485,127.03160095,ST-1636
8,1373. 성북구보건소 건너편,30,375,37.60235596,127.03907776,ST-1637
20,1375. 생명의 전화 종합복지관 앞 교차로,16,80,37.60390854,127.03737640,ST-1723
7,1376. 한국과학기술연구원 중문,0,0,37.59730911,127.04378510,ST-1745
10,1377. 한국과학기술연구원 북문,8,80,37.60418701,127.04549408,ST-1746
10,1379.길음뉴타운푸르지오아파트 3단지,0,0,37.60929489,127.01847839,ST-2221
15,1380.월곡역 5번출구 앞,47,313,37.60108566,127.04123688,ST-2222
18,1381.석계역 4번출구 뒤,66,367,37.61478424,127.06700134,ST-2223
10,1382.래미안월곡아파트 입구,33,330,37.60866547,127.03627014,ST-2406
13,1384.성신여대입구역 5번출구,23,177,37.59282684,127.01628876,ST-2225
10,1385.성신여대입구역 3번출구 앞,18,180,37.59236526,127.01628876,ST-2226
10,1386.동선고가차도 초입,11,110,37.59415817,127.01896667,ST-2227
10,1388. 돈암초교입구 버스정류장(한성대입구역 방면),5,50,37.59088135,127.01170349,ST-2229
10,1390.석관래미안아트리치,46,460,37.60646057,127.06162262,ST-2231
10,1391.성북청소년센터,22,220,37.61688232,127.05606842,ST-2232
10,1392.돈암삼성풍림아파트,5,50,37.59709930,127.02262878,ST-2233
10,1393.돈암육교 하단,1,10,37.59818268,127.02117920,ST-2234
10,1394.길음뉴타운 래미안9단지,24,240,37.60242462,127.01998138,ST-2235
20,1395.래미안장위포레카운티(102동),26,130,37.61817932,127.05183411,ST-2236
30,1396.래미안장위퍼스트하이(513동),60,200,37.61844254,127.05145264,ST-2237
15,1401. 극동늘푸른아파트,24,160,37.61473846,127.07636261,ST-558
10,1402. 금란주차장 앞,23,230,37.60007095,127.10233307,ST-561
15,1403. 중화빌딩 앞 (동부시장),45,300,37.59424973,127.07657623,ST-566
10,1404. 동일로 지하차도,0,0,37.59529877,127.08003235,ST-599
10,1405. 망우역 1번출구,2,20,37.59909821,127.09294891,ST-568
10,1407. 먹골역 1번출구 뒤,21,210,37.61151123,127.07788849,ST-847
10,1408. 먹골역 6번출구 앞,21,210,37.61072159,127.07747650,ST-570
10,1410. 면목 대원칸타빌아파트,13,130,37.57778168,127.09018707,ST-573
10,1411. 상봉시장앞 교차로 한성빌딩 앞,21,210,37.59254074,127.08673859,ST-912
8,1416. 상봉역 3번출구,3,38,37.59521866,127.08599854,ST-850
10,1418. 새솔초등학교,9,90,37.61743927,127.10901642,ST-583
15,1420. 신내어울공원 앞,9,60,37.61394501,127.09770203,ST-585
13,1421. 신내역 4번출구,0,0,37.61246109,127.10337830,ST-586
10,1422. 신내우디안아파트 1단지,3,30,37.62009811,127.10646057,ST-587
10,1424. 양원역 2번출구,0,0,37.60631180,127.10774231,ST-588
10,1425. 신성미소지움아파트,18,180,37.58745956,127.09597015,ST-589
10,1426. 면목도시개발아파트 1동 앞,42,420,37.57358932,127.08682251,ST-590
10,1427. 용마산역 1번출구,18,180,37.57429886,127.08691406,ST-852
10,1428. 원묵고등학교,13,130,37.61602402,127.08596802,ST-853
15,1429. 장안중학교,28,187,37.59995651,127.08000183,ST-854
20,1430. 중랑구청,27,135,37.60615158,127.09259796,ST-855
10,1431. 중랑구청 사거리,13,130,37.60649872,127.09545135,ST-856
10,1433. 중화역 2번출구,2,20,37.60207748,127.07958221,ST-857
10,1435. 능산삼거리,2,20,37.60868073,127.10079193,ST-593
15,1436. 동원베네스트 건물 앞,9,60,37.60810089,127.10118103,ST-594
15,1437. 늘푸른공원 앞,11,73,37.58341980,127.07992554,ST-595
15,1438. 홈플러스 신내점 앞,31,207,37.61616898,127.09348297,ST-596
10,1440. 면목2동 사거리,36,360,37.58637238,127.08007050,ST-942
10,1441. 신내능말공원,19,190,37.61670685,127.11026001,ST-584
8,1442. 중랑구청 중화동 별관 앞,16,200,37.59859085,127.07981873,ST-1093
10,1444. 면목4치안센터,16,160,37.57402802,127.08054352,ST-1095
10,1446. 중랑전화국 교차로,21,210,37.59130096,127.08032990,ST-1097
17,1447. 면목역 3번출구,20,118,37.58890152,127.08728027,ST-1098
15,1448. 코스트코 상봉점,14,93,37.59732056,127.08979797,ST-1099
15,1449. 상봉역 1번출구,3,20,37.59655762,127.08583832,ST-1332
10,1450. 화랑대역 7번출구,8,80,37.61963654,127.08504486,ST-1333
10,1451. 중랑세무서,29,290,37.59275818,127.07266998,ST-1334
25,1452. 겸재교 진입부,30,120,37.58565521,127.07505035,ST-1335
9,1453. 중랑캠핑숲,19,211,37.60460281,127.10925293,ST-1345
10,1454. 한국전력공사(동대문 중랑지사),34,340,37.60734940,127.07859039,ST-1346
10,1455. 상봉역 2번 출구,27,270,37.59632874,127.08589935,ST-1375
10,1456. 상아빌딩(우림시장 교차로),4,40,37.59511185,127.10032654,ST-1380
10,1457. 동원사거리,9,90,37.58975983,127.09323883,ST-1381
9,1458. 상봉터미널2,36,400,37.59733963,127.09308624,ST-1451
12,1461.동양엔파트 앞,11,92,37.59385300,127.07507324,ST-2282
9,1462.동부시장 북문 앞,24,267,37.59386826,127.07652283,ST-2283
10,1463.중랑구민회관,20,200,37.57407761,127.08500671,ST-2284
15,1464.중화역 4번출구,28,187,37.60305405,127.07900238,ST-2285
10,1466.두산대림아파트 삼거리,9,90,37.61882401,127.08757019,ST-2287
10,1467.sk신내 주유소앞(용마산로),6,60,37.61362076,127.10115051,ST-2288
6,1468.먹골역 7번 출구,20,333,37.61147690,127.07739258,ST-2289
20,1469.먹골역 4번출구,23,115,37.60982132,127.07813263,ST-2290
20,1470.중화동 우리은행 앞,10,50,37.60520172,127.07858276,ST-2291
10,1471.동양쇼핑 정류소 앞,22,220,37.61535263,127.07849121,ST-2292
8,1472.영성빌딩(PAT),8,100,37.60408401,127.07923126,ST-2293
10,1473.중랑역 1번 출구(중화문화복지센터),10,100,37.59489059,127.07495117,ST-2294
9,1474.서울중랑우체국,1,11,37.59581375,127.08283997,ST-2295
10,1477.면목삼익아파트 앞,20,200,37.57598495,127.07960510,ST-2298
15,1478.홈플러스 상봉점 앞,5,33,37.59832764,127.09226990,ST-2299
10,1479.면목 홈플러스 2 ,17,170,37.58105469,127.08209229,ST-2300
15,1480. 용마지구대 B,7,47,37.58111191,127.08010101,ST-2301
9,"1501. 미아역 3번,4번 출구 사이",1,11,37.62607956,127.02648163,ST-948
14,1503. 강북구청사거리(수유역 8번출구),15,107,37.63926315,127.02672577,ST-643
10,1504. 삼양시장오거리,1,10,37.62415695,127.01862335,ST-644
15,1506. 강북문화예술회관,17,113,37.64032745,127.01335907,ST-645
10,1509. 서울북부수도사업소,28,280,37.63437653,127.03575134,ST-859
10,1510. 번동주공5단지 관리사무소 앞,12,120,37.63371658,127.03551483,ST-860
20,1512. 강북중학교 앞,49,245,37.64473724,127.02656555,ST-862
20,1513. 강북구청 뒷편,7,35,37.63967133,127.02519989,ST-863
10,1514. 강북구청 사거리 버스정류소 앞,2,20,37.63880539,127.02835846,ST-646
10,1515. 송천동 주민센터,5,50,37.61828613,127.02404785,ST-648
10,1516. 우이동길마을마당,9,90,37.63979340,127.01685333,ST-652
8,1518. 수유2동은행빌딩 앞,5,63,37.64308548,127.01616669,ST-654
10,1519. 장미원시장 건너편,9,90,37.64545059,127.01561737,ST-651
7,1520. 수유중앙시장,24,343,37.63986206,127.02278900,ST-650
10,1525. 미아동 복합청사,1,10,37.62714005,127.02669525,ST-647
8,1526. 강북종합시장 앞,10,125,37.64173889,127.02462769,ST-1100
10,1527. 미아역 1번 출구 뒤,2,20,37.62733459,127.02605438,ST-1101
10,1528. 삼각산동 주민센터,9,90,37.61503601,127.02069855,ST-1102
15,1529. 미아동 한국전력공사,4,27,37.63018036,127.02490997,ST-1103
13,1530. 광산사거리,26,200,37.64355087,127.02234650,ST-1104
10,1531. 미아사거리 1번 출구,2,20,37.61395645,127.03025055,ST-1105
10,1532. 번3동 주민센터 교차로,29,290,37.62635422,127.04744720,ST-1106
10,"1533. 번동 주공3, 4단지 교차로",18,180,37.62991714,127.04091644,ST-1107
10,1535. 효성인텔리안 앞,3,30,37.63629150,127.02337646,ST-1109
20,1536. 번동 두산위브 101동 옆,33,165,37.63626099,127.03217316,ST-1110
10,1537. 북한산 우이역,8,80,37.66366577,127.01242828,ST-1387
8,1538. 솔밭공원역,2,25,37.65615845,127.01313782,ST-1388
10,1539. 4.19민주묘지역,18,180,37.64967346,127.01345062,ST-1389
8,1540. 가오리역,4,50,37.64167023,127.01688385,ST-1390
10,1541. 삼양역,0,0,37.62652969,127.01805878,ST-1391
10,1542. 삼양사거리역,2,20,37.62155151,127.02037048,ST-1392
10,1543. 수유1동 주민센터,0,0,37.63018799,127.01773834,ST-1423
10,1546. 송천동우체국,21,210,37.61545944,127.02970123,ST-1665
10,1547. 꿈의숲 롯데캐슬,9,90,37.61775208,127.03570557,ST-1724
15,1548. 북서울 꿈의숲 서문,4,27,37.62268829,127.03781128,ST-1725
10,1550.삼각산아이원아파트(105동 옆),0,0,37.61522293,127.01850891,ST-2123
8,1551.4.19탑 앞,16,200,37.64686203,127.00881195,ST-2124
8,1552. 강북구청사거리,3,38,37.63920212,127.02723694,ST-2125
15,1553.서울북부고용노동지청,8,53,37.63520432,127.03396606,ST-2126
10,1554.번동사거리,4,40,37.63539124,127.03455353,ST-2127
10,1557.신창교,11,110,37.63238144,127.03930664,ST-2129
10,1558.강북문화정보도서관,15,150,37.62552643,127.03732300,ST-2130
10,1560. 도봉세무서 앞,19,190,37.61980820,127.02852631,ST-2132
7,1564.4.19민주묘지역 1번출구,20,286,37.64959717,127.01384735,ST-2133
15,1565.수유사거리,2,13,37.63561249,127.02299500,ST-2134
14,1568.4.19민주묘지 입구사거리,12,86,37.64793396,127.01457214,ST-2136
10,1569.수유역2번출구,1,10,37.63796997,127.02590179,ST-2137
10,1571.북서울 꿈의 숲 입구,15,150,37.62657166,127.03864288,ST-2401
10,1572. 우이동 먹거리마을,0,0,37.66446304,127.01184082,ST-2402
10,1573.현대성우아파트 옆,2,20,37.61666489,127.02210999,ST-2403
8,1574.송중초등학교 옆,13,163,37.61669922,127.03049469,ST-2405
10,1601. 석계역 문화광장 내 자전거 보관소,26,260,37.61518097,127.06464386,ST-600
13,1602. 광운대역 앞,62,477,37.62266159,127.06189728,ST-913
10,1605. 헬스케어,32,320,37.63162231,127.06161499,ST-866
10,1606. 태릉입구역 3번출구 ,14,140,37.61917114,127.07492828,ST-602
9,1608. 공릉역 1번 출구 앞,27,300,37.62661362,127.07275391,ST-735
20,1610. 화랑대역 2번출구 앞,35,175,37.62036896,127.08364105,ST-603
25,1611. 과기대 입구(우),39,156,37.62957382,127.07678986,ST-604
10,1616. 하계2동 공항버스정류장 옆,8,80,37.63510895,127.06832886,ST-605
7,1617. 하계동 중평어린이공원 앞,57,814,37.63756943,127.06315613,ST-606
10,1619. 중계동 하나프라자빌딩 앞(중1-1),4,40,37.64902115,127.07640839,ST-736
5,1620. 중계구민체육센터,3,60,37.64820862,127.07022095,ST-867
20,1625. 상계역 3번출구,1,5,37.65999985,127.07296753,ST-914
12,1627. 수락산역 4번출구,7,58,37.67694092,127.05509949,ST-915
5,1628. 노일초등학교 앞,12,240,37.67361832,127.05525208,ST-868
10,1630. 수연빌딩 앞,22,220,37.67625046,127.05550385,ST-869
15,1634. 당고개공원 대여소,3,20,37.66846085,127.07714844,ST-608
6,"1635. 상계3,4동 주민센터 대여소",1,17,37.67271042,127.08316040,ST-609
10,1636. 상계주공2단지 버스정류장 옆,4,40,37.64921188,127.06176758,ST-610
9,1637. KT 전화국 버스정류장 옆,2,22,37.65470123,127.06340027,ST-611
10,1639. 희성오피앙,4,40,37.68031311,127.05506897,ST-612
9,1640. 한내근린공원 북측,36,400,37.62386322,127.06848907,ST-971
15,1641. 한내근린공원 남측,41,273,37.62155533,127.06951141,ST-970
7,1642. 서울여대 남문,5,71,37.62531662,127.08813477,ST-964
10,1643. 태릉입구역 8번출구,6,60,37.61736679,127.07521057,ST-1111
10,1646. 삼육대 입구,6,60,37.63848877,127.10790253,ST-1114
25,1650. 중계근린공원내,33,132,37.63957977,127.06510162,ST-1118
20,1651. 상계동 우방유쉘아파트 앞,11,55,37.67237473,127.05599213,ST-1119
10,1652. 파르코 앞,26,260,37.68000031,127.05558014,ST-1120
10,1653. 노원역1번출구,0,0,37.65620041,127.06362152,ST-1121
15,1654. 당고개입구 오거리,5,33,37.66379166,127.07544708,ST-1122
15,1655. 공릉1단지아파트,24,160,37.63111115,127.07015991,ST-1123
12,1656. 중앙하이츠 아파트 입구,27,225,37.65501785,127.06750488,ST-1124
20,1657. 노원구청 ,0,0,37.65404892,127.05732727,ST-1125
10,1659. 중계동 을지중학교,1,10,37.65032959,127.07160187,ST-1127
8,1660. 서울시립과학관,0,0,37.64207077,127.07662201,ST-1128
10,1661. 당현천근린공원,13,130,37.64963913,127.06560516,ST-1278
20,1662. 노원역7번출구,1,5,37.65421677,127.05921173,ST-1279
25,1663. 동해문화예술관앞,11,44,37.61938095,127.05785370,ST-1280
10,1664. 노해근린공원내,5,50,37.64936066,127.07044220,ST-1281
10,1665. 양지근린공원앞,0,0,37.64699554,127.07640076,ST-1282
10,1666. 노원소방서인근,9,90,37.65578079,127.07177734,ST-1283
10,1667. 중계중학교,13,130,37.65449905,127.07438660,ST-1284
10,1668. 중계역 6번출구,1,10,37.64556503,127.06334686,ST-1285
9,1669. 중계역 3번출구,7,78,37.64352798,127.06522369,ST-1286
20,1670. 노원경찰서교차로,6,30,37.64340973,127.07183838,ST-1287
15,1671. 인덕대학교,44,293,37.62934875,127.05482483,ST-1288
15,1672. 상계동수락리버시티,18,120,37.68859863,127.05340576,ST-1289
15,1674. 서울북부고용센터앞,0,0,37.65354919,127.05808258,ST-1291
9,1675. 월계문화체육센터,1,11,37.62694168,127.05513000,ST-1348
15,1677. 육군사관학교  앞,36,240,37.62316513,127.09049988,ST-1349
10,1678. 성서대학교 밀알관,2,20,37.64843750,127.06444550,ST-1394
10,1679. 삼육대 도서관,4,40,37.64282990,127.10666656,ST-1395
7,1680. 삼육대 제3과학관,3,43,37.64265442,127.10838318,ST-1396
12,1681. 현대6차 아파트,12,100,37.64580154,127.08226013,ST-1425
13,1682. 중계종합사회복지관 교차로,4,31,37.65745544,127.07554626,ST-1426
5,1683. 노원문화예술회관,15,300,37.65045929,127.08088684,ST-1473
20,1684. 태릉입구역 5번출구,4,20,37.61832047,127.07563019,ST-1474
6,1685. 불암고등학교 앞 횡단보도,8,133,37.64818954,127.08048248,ST-1475
15,1686. 상계주공10단지 종합상가 앞,14,93,37.66114044,127.05805206,ST-1476
9,1688. 마들역 7번출구,15,167,37.66566086,127.05729675,ST-1639
10,1689. 마들역 3번출구,9,90,37.66524887,127.05789185,ST-1640
10,1690. 도봉운전면허시험장 버스정류장 옆,0,0,37.65773010,127.05931091,ST-1641
10,1691. 노원정보도서관,3,30,37.66070938,127.06533051,ST-1642
10,1692. 온곡초교 교차로,2,20,37.66418839,127.06600952,ST-1672
10,1693. 원자력 병원,2,20,37.62818909,127.08210754,ST-1740
10,1696.수락리버시티4단지,24,240,37.68645096,127.05283356,ST-2062
10,1697.상계주공2단지 219동,34,340,37.65024948,127.05715179,ST-2063
10,1702. 녹천역 1번출구 앞,18,180,37.64582062,127.05042267,ST-613
10,1703. 도봉산광역환승센터앞 ,17,170,37.68972015,127.04519653,ST-657
8,1705. 도봉구청 정문앞,7,88,37.66922379,127.04651642,ST-614
10,1706. 방학동우체국 건너편,26,260,37.66566467,127.04267120,ST-916
20,1707. 도봉구민회관,0,0,37.65446091,127.03851318,ST-615
7,1708. 도봉보건소사거리,4,57,37.65682983,127.03984833,ST-658
17,1709. 쌍문역4번출구 주변,3,18,37.65012741,127.03534698,ST-616
15,1713. 쌍문동 이안아파트 앞,0,0,37.65165329,127.02848816,ST-1129
10,1714. 도봉문화정보도서관 삼거리,1,10,37.64463043,127.04460907,ST-1130
20,1715. 서울특별시교육청도봉도서관,1,5,37.65317917,127.01278687,ST-1131
8,1716. 창동역 1번출구 건너편,2,25,37.65420151,127.05072784,ST-1132
6,1719. 신도봉사거리 버스정류장,17,283,37.67328262,127.04399109,ST-1135
27,1720. 도봉구청 옆(중랑천변),60,222,37.66867065,127.04798126,ST-1136
15,1722. 창동청소년수련관,19,127,37.65779877,127.05004883,ST-1292
10,1725. 창1동주민센터,14,140,37.64750290,127.04331207,ST-1295
8,1726. 삼익세라믹아파트교차로,10,125,37.65858841,127.03520966,ST-1296
15,1727. 서울도봉초등학교인근,39,260,37.67867661,127.04076385,ST-1297
10,1728. 서울북부지방법원,2,20,37.67771912,127.04681396,ST-1434
8,1729. 도봉한신아파트 버스정류장,29,363,37.68400955,127.04579163,ST-1461
8,1730. 도봉산역 교차로 앞,12,150,37.68759155,127.04550171,ST-1462
10,1731. 도봉고등학교 맞은편,11,110,37.68762970,127.04221344,ST-1463
10,1732. 방학역사거리,10,100,37.66759872,127.04299927,ST-1464
12,1733. 방학사거리 (봄마당 앞),12,100,37.66297913,127.04193878,ST-1465
10,1734. 쌍문현대1차아파트 108동 앞,28,280,37.65814972,127.03266907,ST-1466
13,"1735. 도봉역 1,2번 출구사이 건너편",9,69,37.67911911,127.04498291,ST-1467
12,1736. 버스정류장 앞,1,8,37.65224075,127.03706360,ST-1468
10,1737. 신창시장,26,260,37.63970184,127.03883362,ST-1469
10,1738. 창동주공17단지 상가앞,49,490,37.64630890,127.05274200,ST-1470
20,1741. 제일강산수산입구,7,35,37.64519882,127.03298187,ST-1638
10,1742. 북한산 코오롱 하늘채,18,180,37.64889145,127.02301788,ST-1726
10,1743.창동19단지아파트 관리사무소앞,28,280,37.65039062,127.05219269,ST-2088
15,1744.도봉소방서 옆,17,113,37.66480255,127.04302979,ST-2089
10,1749. ESA아파트 상가 앞,21,210,37.66627121,127.04598999,ST-2094
12,1750. 창포원 남쪽 입구,20,167,37.68826675,127.04889679,ST-2095
15,1751. 창원초등학교 교차로,25,167,37.65212250,127.04170227,ST-2096
6,1752. 창동 주공 4단지 입구 옆,13,217,37.64548111,127.04857635,ST-2097
11,1754. 창동시장입구 사거리,2,18,37.64689636,127.03343201,ST-2099
10,1756.서울북부광역등기국,11,110,37.65148544,127.04431915,ST-2101
10,1757.솔밭공원역 1번출구 앞,5,50,37.65568542,127.01338196,ST-2102
10,1758.솔밭공원역 1번출구 주변,17,170,37.65727997,127.01375580,ST-2103
10,1759.서울북부지방법원 앞,7,70,37.67721939,127.04863739,ST-2104
10,1761.방학중학교 앞,9,90,37.66562271,127.03108978,ST-2106
25,1762.북한산 한신휴플러스APT앞,30,120,37.65533829,127.04241943,ST-2107
13,1765.쌍문역 1번출구 주변,4,31,37.64966965,127.03561401,ST-2110
10,1767.방학초등학교 앞,20,200,37.66250992,127.03327942,ST-2112
8,1768.신동아타워 버스정류소,12,150,37.66208267,127.02874756,ST-2113
15,1770.도봉한신아파트 주변,9,60,37.68473816,127.05004120,ST-2115
15,1771.성원APT버스정류소,32,213,37.65796661,127.03009033,ST-2116
13,1772.시립도봉노인복지관 버스정류소,7,54,37.65805054,127.03575897,ST-2117
8,1774.정의여중고 버스정류소,5,63,37.65134811,127.03472900,ST-2119
15,1775.신원리베르텔 앞,30,200,37.65128708,127.04554749,ST-2120
10,1804. 독산역 2번출구 자전거주차장,5,50,37.46650314,126.88896942,ST-619
10,1805. 서울디지털운동장 앞,10,100,37.48228836,126.87776947,ST-620
10,1806. 에이스하이엔드타워9차 앞,9,90,37.48621368,126.87863922,ST-621
20,1808. 에이스하이엔드타워8차 앞,3,15,37.47320938,126.88494110,ST-622
10,1809. LG전자 별관동(호서대 벤처타워 맞은편),18,180,37.47143555,126.88537598,ST-623
10,1812. 갑을그레이트밸리 앞,21,210,37.47903061,126.88729858,ST-624
8,1814. 두산위브아파트 옆 상가건물 앞,29,363,37.47422028,126.89412689,ST-625
10,1819. 금천구청 앞 자전거거치대,10,100,37.45647812,126.89592743,ST-642
10,1820. 신한은행 시흥대로금융센터지점,10,100,37.44334030,126.90335846,ST-628
10,1821. 홈플러스 시흥점 맞은편 다비치안경 앞,20,200,37.45145798,126.90211487,ST-629
10,1822. 서울 시흥동우체국 앞,9,90,37.45299149,126.90090942,ST-630
10,1823. 상신정비공업 앞,0,0,37.45891190,126.89859009,ST-631
25,1824. 독산근린공원 입구,44,176,37.46455002,126.88372803,ST-632
10,1825. 한신아파트 앞 육교 아래,14,140,37.45470047,126.89105225,ST-633
10,1826. 한신코아 앞,28,280,37.45684052,126.88834381,ST-634
20,1827. 독산보도육교 앞 자전거 보관소,25,125,37.45672607,126.89306641,ST-660
10,1828. 한양수자인아파트 앞,8,80,37.47531891,126.89888763,ST-635
10,1829. 홈플러스 금천점 앞,15,150,37.46913910,126.89720154,ST-636
19,1830. 빅마켓 금천점 앞,10,53,37.47023010,126.89507294,ST-637
10,1831. 한국전력 구로금천지사 앞,8,80,37.47249985,126.89795685,ST-638
10,1833. 독산역 1번출구 A,9,90,37.46654129,126.89028168,ST-639
10,1834. 월드메르디앙 벤처센터 2차,3,30,37.47908401,126.87904358,ST-640
10,1835. STX V타워,3,30,37.47706985,126.88442993,ST-641
7,1836. 금천구립 독산도서관,9,129,37.46740341,126.90814209,ST-661
20,1839. 수출의 다리 아래,2,10,37.47743607,126.88615417,ST-1140
20,1840. 솔브레인이엔지 뒤편,14,70,37.47555161,126.88845825,ST-1141
12,1841. 가산동 주민센터,32,267,37.47695160,126.89186859,ST-1142
12,1842. 한울중학교,2,17,37.46257401,126.90686035,ST-1143
10,1843. 독산고등학교,16,160,37.47709656,126.91113281,ST-1144
15,1846. 롯데캐슬골드파크1차 동문,27,180,37.46017075,126.89604187,ST-1147
10,1847. 독산주공 14단지 버스정류소,17,170,37.46093369,126.88716888,ST-1148
9,1848. 벽산 디지털밸리 5차,0,0,37.47627640,126.88539124,ST-1149
10,1849. 대륭포스트타워5차,12,120,37.48135376,126.88694000,ST-1276
10,1850. 코오롱테크노밸리,9,90,37.48015976,126.88636780,ST-1277
10,1851. 가산디지털단지 9번출구 인근,0,0,37.48123169,126.88148499,ST-1403
10,1853. 서울디자인직업전문학교 앞,5,50,37.47248077,126.89586639,ST-1534
10,1854. 가산아네스트 오피스텔 앞,9,90,37.47817993,126.89740753,ST-1535
10,1855. 성지아파트 옆 도로변,8,80,37.45132065,126.89762115,ST-1536
10,1856. 모두의학교,8,80,37.47840881,126.90737152,ST-1537
10,1857. 주공14단지,14,140,37.46055984,126.88709259,ST-1538
10,"1858. 500번,507번 버스 종점 앞",35,350,37.43727112,126.90268707,ST-1648
13,1859. 대륭테크노타운 18차,27,208,37.46799850,126.88684082,ST-1734
10,1861.IBK기업은행 석수역 지점 앞,3,30,37.43698120,126.90329742,ST-1932
20,1862.스타즈호텔독산 빌딩 앞,4,20,37.46134567,126.89758301,ST-1933
9,1863.위너스 스포츠클럽 골프연습장옆,16,178,37.46053696,126.89860535,ST-1934
15,1864.산호시티빌 옆,5,33,37.45652008,126.89955139,ST-1935
10,1865.금천구청앞(M빌딩),4,40,37.45633316,126.89645386,ST-1936
10,1866.서울안천초등학교 옆,4,40,37.45777893,126.88942719,ST-1937
30,1867.대륭포스트타워6차 앞,1,3,37.48101044,126.88416290,ST-1938
10,1868.우리은행 시흥남자동화점 앞,6,60,37.44785309,126.90288544,ST-1939
15,1869.롯데캐슬골드파크3차 301동 앞,9,60,37.45901871,126.89671326,ST-1940
8,1870.독산3동주민센터 앞,9,113,37.47507095,126.90335846,ST-1941
10,1901. 신도림동주민센터 앞,26,260,37.50733185,126.87973022,ST-662
10,1904. 도림천역 1번 출구 앞,3,30,37.51424026,126.88287354,ST-663
20,1906. 신도림역 1번 출구 앞,3,15,37.50971985,126.89009857,ST-664
12,1907. 구일우성(아) 육교 밑,47,392,37.48963165,126.87625885,ST-665
12,1908. 해원리바파크 육교 밑,17,142,37.49528503,126.87216187,ST-666
5,1910. 낙원교회 맞은편,8,160,37.49750519,126.88437653,ST-667
18,1911. 구로디지털단지역 앞,9,50,37.48493958,126.90132141,ST-668
13,1912. 한신휴아파트 앞,34,262,37.48880005,126.89066315,ST-669
10,1914. 대림역4번출구,0,0,37.49440384,126.89444733,ST-918
10,1916. 구로중학교앞,13,130,37.49414062,126.88998413,ST-671
14,1920. 서울미래초등학교 사거리,3,21,37.50437927,126.88829803,ST-673
10,1924. 삼부르네상스파크빌,8,80,37.47874069,126.89509583,ST-674
20,1925. 동양미래대학교 정문 옆,48,240,37.49988937,126.86769867,ST-919
10,1928. 고척스카이돔구장 광장,7,70,37.49946976,126.86840057,ST-675
10,1929. 고척근린공원 고척도서관 앞,8,80,37.50381470,126.85195923,ST-676
7,1930. 개봉지구대 개봉치안센터,4,57,37.49768448,126.85372925,ST-677
10,1931. 개봉역2번출구 A,5,50,37.49499512,126.85825348,ST-920
16,1933. 개봉푸르지오아파트 상가,48,300,37.50170517,126.84728241,ST-678
10,1936. 개봉역 1번 출구 자전거보관서쪽,8,80,37.49428177,126.85921478,ST-870
15,1937. 한진아파트 입구,6,40,37.48606110,126.85201263,ST-679
10,1941. 오류동역 2번출구,9,90,37.49367142,126.84370422,ST-871
10,1943. 온수역 북측,0,0,37.49279022,126.82452393,ST-872
10,1946. 구로역 광장,1,10,37.50311661,126.88038635,ST-873
15,1951. 천왕이펜하우스 4단지 후문,14,93,37.48070526,126.83895874,ST-874
20,1952. 천왕연지타운2단지 앞,29,145,37.48210526,126.84572601,ST-875
20,1953. 천왕역 4번출구 뒤,22,110,37.48638535,126.83921051,ST-876
10,1955. 디지털입구 교차로,1,10,37.48288345,126.90103912,ST-936
15,1956. 동아1차APT105동 버스정류장(신도림중학교 방면),25,167,37.51000977,126.88204956,ST-1218
15,1957. 구일고등학교 정문 ,37,247,37.49340057,126.87432861,ST-1219
15,1958. 강서수도사업소민원센터,18,120,37.49578094,126.89012146,ST-1220
9,1959. 구로구의회 앞,14,156,37.49651337,126.88957214,ST-1221
10,1960. 구로거리공원 동측(신도림역 방면),12,120,37.50284958,126.88948059,ST-1222
15,1961. 신도림테크노근린공원,0,0,37.50818253,126.89133453,ST-1223
15,1962. 가리봉동주민센터,2,13,37.48160172,126.89279938,ST-1224
10,1964. 원메디타운 앞,14,140,37.49789047,126.86450195,ST-1226
15,1965. 삼환로즈빌아파트 105동 옆,12,80,37.49724197,126.85912323,ST-1227
10,1966. 한마을아파트 정문상가,24,240,37.49649811,126.86309814,ST-1228
10,1967. 참새공원(백곡경노당),22,220,37.50513840,126.84433746,ST-1229
10,1969. 궁동생태공원,19,190,37.50190353,126.82896423,ST-1231
10,1971. 오정초교 앞 보도육교,13,130,37.49072266,126.82639313,ST-1233
10,1973. 오리로와 서해안도로 교차로 앞,7,70,37.48859787,126.83649445,ST-1235
9,1974. 신도림2차e편한세상아파트 203동 앞,15,167,37.50518036,126.88253784,ST-1236
10,1975. 대림역 1번 출입구 밑,0,0,37.49256516,126.89475250,ST-1237
10,1976. 남구로역 5번 출입구 앞,7,70,37.48567963,126.88670349,ST-1238
15,1977. 천왕역 1번 출입구 앞,1,7,37.48620987,126.83882141,ST-1239
10,1979. 구로1동우체국 앞,11,110,37.49203110,126.87377167,ST-1241
10,1981. 천왕지구삼거리 앞,15,150,37.47943115,126.84269714,ST-1243
10,1983. 구로동롯데아파트,19,190,37.50254822,126.88388062,ST-1273
20,1985. 구로도서관,16,80,37.49851608,126.89199066,ST-1275
15,1986. 태평양물산,3,20,37.48485947,126.89518738,ST-1521
15,1987. 개봉아이파크아파트 앞,24,160,37.49034119,126.86093140,ST-1522
20,1988. 고척LIGA아파트 앞,42,210,37.50605011,126.86078644,ST-1523
13,1991. 오류동역 맞은편,28,215,37.49676132,126.84496307,ST-1526
12,1992. 구로구배드민턴실내체육관 앞,13,108,37.49179840,126.83242035,ST-1527
10,1993. 금강수목원아파트 앞,18,180,37.48937988,126.83419800,ST-1528
10,1994. 삼성전자 물류센터 앞,22,220,37.49699783,126.87178040,ST-1529
20,1996. 구일역 1번 출입구 앞,5,25,37.49539948,126.87100983,ST-1531
23,1998. 고척교 교차로,3,13,37.49856949,126.87152100,ST-1696
10,1999. 수궁동 성당 주변,7,70,37.49525833,126.83065796,ST-1732
15,2000. 신도림4차 e편한세상 아파트 1109동 앞,3,20,37.51232910,126.88683319,ST-1733
17,2002. 노들역 1번출구,65,382,37.51284409,126.95246887,ST-683
10,2003. 사육신공원앞,20,200,37.51335907,126.94805908,ST-877
10,2008. 노량진근린공원 대방공원,14,140,37.50936890,126.92807007,ST-686
10,2009. 보라매역 8번출구,20,200,37.50007629,126.92108154,ST-726
10,2012. 대림사거리(동작상떼빌아파트),33,330,37.48836136,126.90622711,ST-727
30,2013. 장승배기역 5번출구,11,37,37.50585175,126.93936157,ST-687
20,2015. 신대방삼거리역 6번출구쪽,34,170,37.49985504,126.92956543,ST-728
10,2016. 신대방삼거리역 3번출구쪽,11,110,37.49964523,126.92709351,ST-688
10,2020. 장승배기역2번출구뒷편쪽,4,40,37.50449753,126.93898773,ST-690
10,2024. 상도역 1번출구,18,180,37.50217819,126.94820404,ST-691
20,2025. 흑석역 1번출구,39,195,37.50938034,126.96361542,ST-692
10,2026. 흑석역 4번출구,29,290,37.50858688,126.96349335,ST-932
15,2027. 중앙대학교 정문 1,25,167,37.50704193,126.95915222,ST-693
10,2032. 이수역 11번출구쪽,7,70,37.48550797,126.98162079,ST-923
10,2033. 사당동 아르테스 웨딩앞,9,90,37.48149109,126.98158264,ST-729
19,2034. 사당역 7번출구쪽,5,26,37.47689056,126.98057556,ST-924
12,2036. 정금마을 마을버스정류장,10,83,37.49466324,126.98244476,ST-694
10,2038. 동작역 7번출구,7,70,37.50318146,126.97608948,ST-696
10,2040. 비계 버스정류소,9,90,37.50635910,126.96907806,ST-697
7,2041. 사당중학교 버스정류소,4,57,37.48683548,126.96804810,ST-731
10,2048. 삼일초등학교 인근,6,60,37.48907852,126.97356415,ST-732
15,2050. 노량진역 5번출구,3,20,37.51324844,126.93997192,ST-699
10,2054. 삼익아파트,23,230,37.51054764,126.94484711,ST-700
10,2056. 동작구민 체육센터,5,50,37.49449921,126.91652679,ST-733
10,2057. 상도 아이파크 아파트,0,0,37.50088120,126.94174957,ST-701
14,2058. 동작경찰서,25,179,37.51352310,126.94352722,ST-1150
10,2059. 보라매공원 정문,14,140,37.49707794,126.91779327,ST-1151
10,2060. 남성역3번출구 뒤,24,240,37.48463058,126.97154999,ST-1152
10,2062. 사당새마을금고,23,230,37.48665237,126.96784210,ST-1154
5,2064. 흑석한강푸르지오 106동앞,0,0,37.50535583,126.96617889,ST-1355
10,2065. 서울시여성가족재단,4,40,37.51198959,126.92708588,ST-1356
10,2066. 양문교회 앞,30,300,37.48939896,126.90711212,ST-1542
10,2067. 보라매역․동작세무서 버스정류장(강남중학교방면),31,310,37.49766922,126.91986847,ST-1543
8,2068. 총신대 앞(육교),9,113,37.48815918,126.96647644,ST-1544
7,2069. 숭실대 입구역3번 출구 앞,8,114,37.49660110,126.95368195,ST-1667
18,2070. 노량진역 2번 출구 앞,18,100,37.51391983,126.94306946,ST-1545
10,2071. 대림아파트 후문 상가 옆,4,40,37.48886871,126.97190857,ST-1742
10,2077.노들역 3번출구,11,110,37.51193619,126.95416260,ST-2350
13,2078.흑석 아크로리버하임(103동),3,23,37.51083755,126.96163177,ST-2351
10,2079.중앙대학교 중앙광장,5,50,37.50667191,126.95777893,ST-2352
15,2080. 대방지하보도(대방동경남아너스빌아파트),7,47,37.51213455,126.92543793,ST-2353
10,2082.7호선 이수역7번출구,9,90,37.48460770,126.98179626,ST-2355
10,2083.흑석롯데캐슬에듀포레(107동),10,100,37.50470352,126.96073151,ST-2356
15,2084.e편한세상 상도노빌리티 앞,6,40,37.50456238,126.94678497,ST-2357
20,2085.강남중학교 앞,9,45,37.50274277,126.92157745,ST-2358
22,2086.삼일수영장 앞,33,150,37.48712158,126.97435760,ST-2359
10,2088.상도중앙하이츠빌 입구,22,220,37.50024796,126.94972992,ST-2361
10,2089.사당역10번출구(금강빌딩),10,100,37.47910690,126.98150635,ST-2362
15,2090.기아자동차 사당점 앞,10,67,37.48377991,126.97792053,ST-2363
15,2091. 이수역9번출구,18,120,37.48470306,126.98059082,ST-2364
10,2092.흑석한강푸르지오(110동),17,170,37.50311279,126.96471405,ST-2365
8,2093.상도SH빌아파트 입구,0,0,37.50321198,126.95459747,ST-2366
20,2094.숭실대학교(중문) ,9,45,37.49550629,126.95637512,ST-2367
10,2095.경문고등학교 앞,15,150,37.49150085,126.98240662,ST-2368
8,2096.서울특별시 동작관악교육지원청,0,0,37.50251389,126.94065094,ST-2369
13,2102. 봉림교 교통섬,8,62,37.48408508,126.92688751,ST-702
10,2103. 신림동 우방아파트,18,180,37.48917770,126.91927338,ST-703
13,2104. 사당역 5번출구,4,31,37.47608948,126.98133087,ST-712
12,2105. 미성동 신림체육센터,23,192,37.48025131,126.91460419,ST-704
12,2106. 세이브마트,46,383,37.47372818,126.91840363,ST-705
20,2108. 은천치안센터,34,170,37.48334122,126.94319916,ST-714
22,2109. 은천로입구 가로공원,21,95,37.48620224,126.93581390,ST-882
9,2110. 조원동 미성아파트,5,56,37.48319244,126.90203094,ST-950
10,2111. 서울대입구역 1번출구,11,110,37.48086929,126.95331573,ST-965
15,2112. 서울대입구역 마에스트로,18,120,37.48133850,126.95064545,ST-715
20,2115. 관악구시설관리공단,10,50,37.47991562,126.90283966,ST-883
9,2116. 에이스에이존빌딩,7,78,37.48170471,126.95082855,ST-717
10,2119. 중앙동 동진빌딩,2,20,37.48425674,126.95469666,ST-884
20,2122. 낙성대로 입구,0,0,37.47805786,126.96049500,ST-719
10,2127. 난곡종점,14,140,37.46488571,126.91947937,ST-707
12,2128. 관악구청교차로,1,8,37.47949982,126.95265198,ST-720
10,2129. 낙성대 과학전시관,3,30,37.46905518,126.95814514,ST-721
10,2130. 영어마을 관악캠프,5,50,37.47198868,126.95842743,ST-722
8,2136. 신림역 8번출구,8,100,37.48450851,126.93006897,ST-976
10,2137. KT&G 관악지점,6,60,37.48490143,126.93653107,ST-723
10,2139. 서울신성초등학교,5,50,37.47116470,126.93701935,ST-951
20,2140. 신림1교 교차로,23,115,37.47842789,126.93186188,ST-724
10,2143. 서울산업정보학교,11,110,37.47069550,126.94219971,ST-886
15,2144. 난우길입구,28,187,37.47777557,126.91675568,ST-709
12,2145. 은천초등학교 육교,9,75,37.48635864,126.94292450,ST-725
10,2148. 낙성대역 3번출구 뒤,1,10,37.47702789,126.96339417,ST-887
12,2156. 신림푸르지오아파트,7,58,37.48072052,126.90932465,ST-952
10,2159. 인헌초교,4,40,37.47509003,126.95922852,ST-1156
8,2164. 관악우체국,3,38,37.48476791,126.93287659,ST-1259
10,2165. JK장평타워,13,130,37.47648239,126.96536255,ST-1260
12,2167. 낙성대역 1번출구,0,0,37.47629547,126.96495819,ST-1262
7,2169. 봉천역 2번출구,6,86,37.48218918,126.94213104,ST-1264
10,2170. 조원동 강남힐병원,21,210,37.48152924,126.91203308,ST-1265
17,2171. 서울대입구역 5번출구,3,18,37.48154831,126.95200348,ST-1337
15,2172. 나들목공원,8,53,37.46940613,126.94451141,ST-1267
10,2173. 당곡사거리,11,110,37.48974991,126.92746735,ST-1268
10,2174. 삼성디지털프라자관악점,11,110,37.48856354,126.92848206,ST-1269
7,2175. 신림동걷고싶은문화의거리입구,11,157,37.48730087,126.92870331,ST-1270
15,2176. 보라매공원 보도육교,29,193,37.48899078,126.91638184,ST-1357
25,2177. 신대방역 2번 출구,55,220,37.48682404,126.91283417,ST-1546
20,2178. 서울대학교 정문,1,5,37.46709442,126.94932556,ST-1547
7,2179. 양녕로 입구,17,243,37.48218918,126.94615936,ST-1548
10,2184. 구암초등학교 버스정류장,19,190,37.48962784,126.94593048,ST-1702
10,2185. 대학동 고시촌,25,250,37.47046661,126.93865204,ST-1757
15,2186. 낙성대입구삼거리,4,27,37.47882080,126.95960999,ST-2370
15,2187. 현대시장사거리,7,47,37.48673630,126.94751740,ST-2371
15,2189. 봉천역 4번출구,21,140,37.48275375,126.94140625,ST-2373
12,2190.도원맨션,7,58,37.48368835,126.93915558,ST-2374
10,2191.대학동주민센터 ,10,100,37.47068787,126.93648529,ST-2375
15,2195.은천교회,20,133,37.48464584,126.93450928,ST-2379
15,2196. 봉천역 3번출구,7,47,37.48331070,126.93902588,ST-2380
10,2198.사랑의병원,9,90,37.47946548,126.95693207,ST-2382
8,2199.신봉천주유소 A,0,0,37.47877121,126.95869446,ST-2383
20,2202.청계산입구역 1번출구,0,0,37.44893646,127.05437469,ST-742
10,2203. 청계산입구역 2번출구,0,0,37.44765854,127.05501556,ST-925
15,2205. 내곡3단지 어린이공원 앞,0,0,37.45375061,127.05937958,ST-743
20,2206. 언남초등학교 앞,18,90,37.45435715,127.06210327,ST-744
9,2207. 내곡파출소 뒤 정자,4,44,37.45440674,127.06492615,ST-926
10,2210. 반포1동 주민센터 앞,2,20,37.50509644,127.01310730,ST-745
10,2211. 서초구립반포도서관 앞,12,120,37.50263596,127.01231384,ST-927
14,2212.서초현대4차아파트 201동 맞은편,22,157,37.50065231,127.01861572,ST-746
20,2213. 고속터미널역 5번출구 앞,0,0,37.50223160,127.00225830,ST-747
15,2214. 신반포역 2번출구 앞,18,120,37.50411606,126.99748993,ST-748
10,2215. 반포종합운동장 입구,20,200,37.50171280,126.99547577,ST-928
20,2217.아크로리버뷰 부지 앞,55,275,37.51304626,127.00595856,ST-749
20,"2219. 고속터미널역 8-1번, 8-2번 출구 사이",0,0,37.50619888,127.00394440,ST-750
15,2221. 방일초교 마을버스 정류장,17,113,37.48561096,126.99468231,ST-752
10,2222.사당역 12번출구 뒤,6,60,37.47806931,126.98203278,ST-753
15,2223. 방배래미안 정문 앞,24,160,37.47261047,126.98300934,ST-754
10,2225.백석예술대학교 제3캠퍼스 앞,4,40,37.47375870,126.99524689,ST-755
10,2226. 신동아럭스빌아파트 앞,3,30,37.47518158,127.00138855,ST-756
15,2227.방배열린문화센터 앞,6,40,37.48905182,126.99252319,ST-757
15,2228.뒷벌공원 옆,16,107,37.48976898,126.98676300,ST-758
10,2229.로고스교회 맞은 편,17,170,37.48735046,126.98492432,ST-759
20,2230.이수역 4번 출구,15,75,37.48582840,126.98262787,ST-760
17,2231. 삼성타운(삼성생명) A동 맞은편,11,65,37.49691391,127.02496338,ST-761
13,2233. 서초신동아1차아파트 옆,5,38,37.49111176,127.02295685,ST-762
10,2235.KT 서초지사 앞,9,90,37.48215866,127.00270081,ST-763
20,2237.서울남부터미널 대합실 입구,3,15,37.48455811,127.01486969,ST-764
10,2239.교대역 6번출구,3,30,37.49421692,127.01378632,ST-765
6,2241.양재전화국 사거리,4,67,37.48537827,127.04170227,ST-766
20,2242.양재역 10번 출구 앞,0,0,37.48398972,127.03417969,ST-767
15,2243.서울가정법원,1,7,37.48149109,127.03672791,ST-768
20,2244. 말죽거리공원 사거리,3,15,37.47785187,127.03890991,ST-769
20,2245.양재초등학교 맞은편,17,85,37.47361374,127.03050995,ST-770
10,2246. 서울시 품질시험소 앞,10,100,37.46920013,127.02900696,ST-889
30,2247.섬들근린공원,22,73,37.46263885,127.02661896,ST-771
10,2248. 서초리슈빌S 글로벌 앞,5,50,37.45995331,127.02474213,ST-929
10,2249. 우솔초등학교 맞은편,11,110,37.45623398,127.01934814,ST-880
10,2250. 서초유치원 맞은편,18,180,37.45579910,127.01628876,ST-881
10,2251. 더케이호텔 입구(양재2) ,2,20,37.46750641,127.03447723,ST-781
25,2252. 잔디마을 마을버스 정류장,1,4,37.46332169,127.03604126,ST-890
25,2255. 양재시민의숲역 1번출구,0,0,37.47016525,127.03862000,ST-772
10,2256.양재동 꽃시장 입구,0,0,37.46768951,127.04035950,ST-773
10,2257. 청계산 입구 삼거리,15,150,37.46268845,127.04611206,ST-774
22,2258.구룡사 삼거리,5,23,37.47153854,127.05059052,ST-775
15,2259. 잠원역 3번-4번 출구사이,3,20,37.51298904,127.01117706,ST-780
20,2263. 바우뫼문화복지회관,18,90,37.47192764,127.02684021,ST-879
9,2264. 이수역 1번출구,25,278,37.48897171,126.98271942,ST-935
10,2265. 이수고가차도 남단,31,310,37.49474335,126.98306274,ST-949
15,2266. 서초역 3번출구,10,67,37.49053955,127.00816345,ST-1158
15,2269. 주홍교 하부,1,7,37.51034927,127.01605225,ST-1161
10,2270. 서초포레스타 7단지,28,280,37.44896698,127.05773926,ST-1162
8,2271. 내방역 8번출구 앞,6,75,37.48802185,126.99411774,ST-1163
10,2272. 교대입구 교차로,3,30,37.48730850,127.01058197,ST-1164
10,2273. 일동제약 사거리,2,20,37.47782898,127.03826904,ST-1165
10,2274. 양재시민의숲역 3번출구,1,10,37.46924210,127.03982544,ST-1166
10,2276. 영동1교 (양재천근린공원),10,100,37.47387695,127.03903198,ST-1168
10,2277. 길마중4교 하부,37,370,37.51483917,127.01560211,ST-1169
8,2279. 교대역 5번출구뒤,14,175,37.49361801,127.01418304,ST-1305
10,2280. 서울서초고용센터앞,7,70,37.48416138,127.01097107,ST-1306
7,2281. 연세사랑병원신관앞,12,171,37.47597885,126.98628235,ST-1307
10,2283. 그룹한빌딩옆,0,0,37.48652649,126.98916626,ST-1309
10,2285. LH서초3단지 301동 맞은편,12,120,37.45742416,127.02265167,ST-1311
7,2286. 탑성마을입구,5,71,37.45854950,127.05588531,ST-1312
5,2287. 능안마을입구,1,20,37.45561981,127.06710052,ST-1313
5,2288. 안골마을입구,2,40,37.45560837,127.06445312,ST-1314
10,2293. SPC 앞,1,10,37.48479843,127.03699493,ST-1360
15,2294. 두상빌딩 앞,22,147,37.47590637,127.04624176,ST-1361
10,2297. 남부터미널역 1번출구,1,10,37.48567200,127.01592255,ST-1404
12,2299. 한전아트센터 앞,10,83,37.48646927,127.02806091,ST-1406
10,2301. 현대고등학교 건너편,3,30,37.52407074,127.02178955,ST-777
10,2302. 교보타워 버스정류장(신논현역 3번출구 후면),6,60,37.50558090,127.02427673,ST-787
15,2303. 논현역 10번출구,5,33,37.51137161,127.02146149,ST-788
10,2304. 대현그린타워,1,10,37.51162720,127.03565216,ST-789
6,2305. MCM 본사 직영점 앞,7,117,37.52064133,127.03450775,ST-790
26,2306. 압구정역 2번 출구 옆,1,4,37.52712250,127.02871704,ST-791
10,2307. 압구정 한양 3차 아파트,1,10,37.52838135,127.03901672,ST-792
14,2308. 압구정파출소 앞,6,43,37.52930069,127.03559875,ST-793
10,2309. 청담역(우리들병원 앞),12,120,37.51890182,127.04938507,ST-783
10,2310. 청담동 맥도날드 옆(위치),3,30,37.52361298,127.04017639,ST-794
6,2311. 학동로 래미안 아파트 앞,0,0,37.51777267,127.04302216,ST-786
10,2312. 청담역 13번 출구 앞,6,60,37.52058029,127.05632782,ST-795
10,2313. 금원빌딩 앞,0,0,37.52511597,127.05246735,ST-796
10,2314. 청담나들목입구,3,30,37.52101517,127.06015015,ST-798
10,2315. 봉은사역 5번출구 옆,0,0,37.51424789,127.06111908,ST-799
10,2317. 삼성도로공원,2,20,37.51588821,127.06620026,ST-784
16,2318. 삼성중앙역4번출구(문화센터더 리빌),1,6,37.51357651,127.05503082,ST-801
10,2319. 포스코사거리 서측(수협 삼성동 지점),5,50,37.50660706,127.05467987,ST-802
10,2320. 도곡역 대치지구대 방향,29,290,37.49191284,127.05709076,ST-803
10,2321. 학여울역 사거리,10,100,37.49611664,127.06944275,ST-804
10,2324. 천주교 대치 2동 교회 옆,2,20,37.50043869,127.06622314,ST-807
10,2325. 대치삼성아파트 앞 교차로,0,0,37.49864960,127.05931854,ST-808
10,2326. 대치동 삼성로,0,0,37.50239563,127.05879974,ST-809
15,2327. 뱅뱅사거리 랜드마크타워 앞,9,60,37.49055099,127.03146362,ST-810
10,2328. 르네상스 호텔 사거리 역삼지하보도 7번출구 앞,0,0,37.50321198,127.04273224,ST-811
10,2329. 르네상스호텔사거리 역삼지하보도 2번출구,0,0,37.50235748,127.04319000,ST-812
10,2330. 역삼월드메르디앙아파트 앞,1,10,37.49219894,127.03945923,ST-813
10,2331. 동영문화센터앞,0,0,37.49805069,127.04460144,ST-814
8,2332. 선릉역3번출구,1,13,37.50410461,127.04903412,ST-815
15,2333. 양재역 3번출구 주변,1,7,37.48515701,127.03407288,ST-816
12,2334. 삼호아파트 2동 ( 간선도로),0,0,37.49375916,127.04589844,ST-817
15,2335. 3호선 매봉역 3번출구앞,28,187,37.48676682,127.04676056,ST-818
10,2336. 강남세브란스교차로  래미안그레이튼 104동 앞,1,10,37.49423599,127.04746246,ST-819
10,2337. 대모산입구역 2번출구 앞,25,250,37.49207687,127.07197571,ST-782
10,2339. 현대아파트 정문 앞,6,60,37.48326111,127.05229950,ST-820
17,2340. 삼호물산버스정류장(23370) 옆,24,141,37.47750854,127.04517365,ST-821
10,2341. 일원역 4~5번 출구 사이,1,10,37.48331070,127.08493805,ST-822
15,2342. 대청역 1번출구  뒤,5,33,37.49390793,127.07962036,ST-823
10,2344. 리엔파크 2단지 앞,33,330,37.46506119,127.10119629,ST-779
11,2347. 두산건설 본사,0,0,37.51863861,127.03540039,ST-961
23,2348. 포스코사거리(기업은행),2,9,37.50723267,127.05685425,ST-797
12,2349. 역삼빌딩 앞(하나은행 옆),0,0,37.50154495,127.03856659,ST-959
9,2350. 래미안그레이튼102동앞,4,44,37.49482346,127.04790497,ST-960
11,2351. 청소년수련관(수영장)앞,3,27,37.48387909,127.08902740,ST-937
6,2352. 서울본부세관(건설회관 앞),5,83,37.51758957,127.03502655,ST-962
10,2353. 강남구청역 2번출구 뒤,8,80,37.51681137,127.04047394,ST-963
5,2354. 청담역 2번출구,1,20,37.51978683,127.05676270,ST-953
10,2356. 강남구청,17,170,37.51807022,127.04711914,ST-954
10,2357. 르네상스호텔사거리 역삼지하보도 3번출구 앞 (더 오번 빌딩 명동칼국수 앞),0,0,37.50166321,127.04297638,ST-966
7,2358. 구룡초사거리 (현대아파트10동 앞 ),3,43,37.48138428,127.05391693,ST-957
10,"2359. 국립국악중,고교 정문 맞은편",13,130,37.47560501,127.05037689,ST-958
9,2360. 도곡1동 주민센터 교차로,2,22,37.49280930,127.04138947,ST-956
10,2362. 신사동 가로수길 입구,6,60,37.51763535,127.02245331,ST-1171
15,2363. 강남 을지병원 교차로,0,0,37.51913834,127.02751923,ST-1172
10,2364. 도산공원교차로,0,0,37.52124023,127.03189850,ST-1173
15,2365. K+ 타워 앞,4,27,37.52330017,127.03847504,ST-1174
7,2368. 도곡동 경남아파트 건너편,1,14,37.48934174,127.04129791,ST-1177
20,2369. KT선릉타워,7,35,37.50542831,127.05287170,ST-1178
10,2370. 한티역 3번출구,2,20,37.49655151,127.05429840,ST-1179
6,2371. 한국우편사업진흥원,3,50,37.51474762,127.03513336,ST-1180
10,2372. 대치역 사거리,33,330,37.49449921,127.06379700,ST-1181
20,2373. 개포동역 사거리,5,25,37.48927689,127.06557465,ST-1182
14,2375. 수서역 1번출구 앞,11,79,37.48735046,127.10099792,ST-1184
14,2376. 수서역 6번출구 앞,6,43,37.48677826,127.10051727,ST-1185
9,2377. 수서역 5번출구,1,11,37.48735046,127.10232544,ST-1186
12,2380. 봉은사로68길 북측,2,17,37.51169586,127.04934692,ST-1245
8,2381. 언주역 3번출구앞,2,25,37.50799942,127.03383636,ST-1246
6,2382. 역삼동 sk뷰 501동앞,2,33,37.50122833,127.05036163,ST-1247
10,2383. 보금자리정원,16,160,37.46632767,127.09488678,ST-1248
15,2384. 자곡사거리,44,293,37.47602844,127.10594177,ST-1364
10,2385. 학동역,6,60,37.51395035,127.03015137,ST-1365
10,2386. 크린랩 본사,0,0,37.50958633,127.04090881,ST-1366
10,2387. 래미안강남힐즈 사거리,9,90,37.47245407,127.09607697,ST-1407
18,2388. 강남구 도시관리공단,7,39,37.51678467,127.05161285,ST-1433
15,2389. 경기여자고등학교 후문 (삼성로3길 입구),28,187,37.48616028,127.06723785,ST-1559
13,2390. 구룡마을 입구 (래미안블레스티지 아파트),37,285,37.48088074,127.06304169,ST-1560
5,2391. 구룡터널 입구(개포1단지아파트),4,80,37.47598648,127.05962372,ST-1561
10,2392. 구룡산 입구 (구룡산 서울둘레길 입구),0,0,37.47447205,127.05545044,ST-1562
10,2394. 개포래미안포레스트아파트 107동 앞,11,110,37.48025131,127.05419159,ST-1564
15,2396. 영동3교 북단(우성캐릭터 앞 보도),1,7,37.48574066,127.05104828,ST-1566
10,2398. 더라움,0,0,37.50811005,127.03945160,ST-1568
10,2401. 밀알학교 입구 (삼성서울병원 입구),5,50,37.48656082,127.08267212,ST-1571
10,2403. 공무원연금매점 교차로 (개포주공9단지 입구),12,120,37.48871994,127.07453918,ST-1573
10,2404. 대모산입구역 4번 출구 앞,29,290,37.49180984,127.07315826,ST-1574
14,2405. 청담공원앞 교차로,11,79,37.51871109,127.05084991,ST-1575
10,2406. 논현동 광명빌딩 앞,5,50,37.51757050,127.02364349,ST-1576
10,2407. 역삼서초삼성 세무서 앞 (역삼빌딩 앞),0,0,37.49847031,127.03011322,ST-1577
14,2408. 강남한양수자인아파트,12,86,37.47734070,127.11327362,ST-1578
20,2409. 역삼동 디오슈페리움 (우성아파트 사거리),9,45,37.49206161,127.03074646,ST-1679
10,2410. 포스코피앤에스타워 (역삼역 3번출구 부근),2,20,37.49959946,127.03375244,ST-1680
15,2411. 세곡동 성당,2,13,37.47296906,127.11222839,ST-1703
20,2413.도곡역 1번 출구,16,80,37.49095917,127.05498505,ST-1879
20,2414. 도곡역 아카데미스위트 앞,15,75,37.48897171,127.05182648,ST-1880
15,2415.한티역 롯데백화점 앞,4,27,37.49667358,127.05342865,ST-1881
10,2416.한티역 6번 출구,6,60,37.49589920,127.05219269,ST-1882
10,"2417.선정릉 디캠프(D,CAMP)앞",2,20,37.50799942,127.04524994,ST-1883
10,2418.봉은사역 7번 출구 ,1,10,37.51393509,127.05982208,ST-1884
13,"2419.봉은사역 1,2번 출구 ",3,23,37.51430893,127.05970001,ST-1885
20,2420.학여울역 사거리(LG베스트샵 앞),14,70,37.49689484,127.07013702,ST-1886
10,2422.수서동 성당 맞은편,7,70,37.48416901,127.09484863,ST-1888
10,2423.영희초교 사거리(래미안개포루체하임),28,280,37.49083710,127.08065033,ST-1889
20,2425.세곡동 사거리(대왕초등학교 정류장),28,140,37.46461868,127.10684967,ST-1891
10,2426.강남한신휴플러스 6단지,15,150,37.46829605,127.10469818,ST-1892
10,2427.개포고등학교 정문앞,7,70,37.48485184,127.05837250,ST-1893
10,2429.압구정로데오역 6번출구,0,0,37.52745438,127.04042816,ST-1895
10,2430.강남파이낸스센터앞(역삼역2번출구),0,0,37.50024414,127.03605652,ST-1896
10,2431.대치역 7번출구,12,120,37.49411774,127.06290436,ST-1897
10,2501. 서초 포레스타5단지,32,320,37.45066071,127.05706024,ST-1552
9,2502. 서초역1번출구 앞,0,0,37.49195099,127.00855255,ST-1553
10,2503. 반포1동 서초빌딩 앞,12,120,37.50381088,127.02136230,ST-1554
10,2504. 신사역 4번출구 뒤,0,0,37.51588058,127.01930237,ST-1555
12,2505. 우성아파트사거리 (기업은행앞),21,175,37.49325943,127.02953339,ST-1556
10,2506. LG유플러스 (방배사옥),10,100,37.47909164,126.99067688,ST-1557
7,2508. 양재이스타빌 앞,11,157,37.48282623,127.04273224,ST-1654
16,2509. 심산기념문화센터,3,19,37.49836349,126.99114990,ST-1655
8,2510. JW타워,4,50,37.48303986,127.02146149,ST-1735
10,2511. 이수역 6번출구 앞,14,140,37.48398972,126.98234558,ST-1739
10,2514.사평역 2번출구,3,30,37.50364304,127.01602173,ST-1899
15,2515.서초초등학교 후문,1,7,37.49892807,127.02472687,ST-1900
9,2516.본마을 노인복지센터 앞,15,167,37.45441818,127.05274200,ST-1901
20,2517. 서초그랑자이 앞,13,65,37.48768234,127.02478790,ST-1902
10,2518. 서초동 현대아파트 앞,20,200,37.48731613,127.02489471,ST-1903
10,2519.서초2교(사임당로 방면),1,10,37.49100876,127.02352142,ST-1904
20,2520.서초1교 (진흥아파트 방면),7,35,37.49593353,127.02177429,ST-1905
13,2521.서초 크로바타워 앞,23,177,37.49556351,127.01918030,ST-1906
10,2523.뉴코아 킴스클럽 앞,15,150,37.51019287,127.00725555,ST-1908
15,2524.반포쇼핑타운 8동 앞,6,40,37.50735092,127.00801849,ST-1909
20,2525.반포쇼핑타운 2동 앞,13,65,37.50560760,127.00215912,ST-1910
12,2529.우리은행 방배동지점 앞,7,58,37.48991776,126.99208069,ST-1914
15,2530.삼호3차아파트 앞,17,113,37.49779510,126.98706818,ST-1915
20,2531.멤피스아파트 앞,18,90,37.49420547,126.98935699,ST-1916
13,2532.국립국악원 앞,1,8,37.47820282,127.00878143,ST-1917
10,2533.한가람미술관 앞,3,30,37.48087692,127.01452637,ST-1918
10,2535.신반포역 3번출구 뒤,6,60,37.50362396,126.99732208,ST-1920
10,2536.서초종합체육관 입구,11,110,37.45899582,127.04132080,ST-1921
10,2537.양재역 8번출구 앞,2,20,37.48257065,127.03643799,ST-1922
25,2538.사평리근린공원,17,68,37.52026749,127.01525116,ST-1923
20,2539.대한무역투자진흥공사 KOTRA 앞,0,0,37.46540833,127.04377747,ST-2404
10,2540.반포천 앞,7,70,37.49905014,126.99625397,ST-1924
10,2541.옛골 입구,9,90,37.43097687,127.07033539,ST-1925
10,2542.신논현타워 앞,16,160,37.50508881,127.02391052,ST-1926
15,2545.국립중앙도서관(국제회의장옆),6,40,37.49721146,127.00427246,ST-1929
7,2547. 반포래미안 리오센트,17,243,37.51832199,127.01480865,ST-2414
18,2548.반포1동 자율방범초소 옆,14,78,37.50847626,127.01676178,ST-2415
10,2549.LH 서초 4단지 403동,38,380,37.45924759,127.02390289,ST-2416
10,2550.양재동 꽃시장 건너편,9,90,37.46738434,127.04145813,ST-2417
16,2601. 석촌호수 아뜰리에,12,75,37.50674820,127.09883118,ST-1590
10,2603. 송파 글마루 도서관,5,50,37.48095322,127.13010406,ST-1592
10,2604. 풍납토성 서성벽터A,39,390,37.53131104,127.11128235,ST-1627
15,2605. 복정역 1번 출구 앞,15,100,37.47129822,127.12709045,ST-1656
15,2606. 위례동주민센터,47,313,37.48117447,127.14361572,ST-1657
10,2608. 송파구청,1,10,37.51499176,127.10611725,ST-1681
10,2609. 보성중고등학교 후문 앞,1,10,37.52048874,127.13520050,ST-1682
7,2611. 송파지역자활센터 뒤,63,900,37.53641891,127.11616516,ST-1684
5,2612. 광평교사거리 인근,0,0,37.48871994,127.10982513,ST-1685
8,2613. 잠실나들목,14,175,37.51678085,127.09049225,ST-1705
15,2614. 가락고등학교 앞,3,20,37.50186157,127.11723328,ST-1706
15,2615. 테라타워2,0,0,37.48834991,127.12078094,ST-1707
10,2616. 거여동 사거리,5,50,37.49704742,127.14035034,ST-1716
15,2617. 가락삼환아파트 앞,3,20,37.49618149,127.13803101,ST-1717
14,2618. 삼전역 1번출구,11,79,37.50471115,127.08756256,ST-1728
9,2619. 석촌고분역 4번출구,44,489,37.50233841,127.09644318,ST-1729
12,2620. 송파나루역 4번 출구옆,13,108,37.50997925,127.11231232,ST-1730
15,2621. 한성백제역 2번 출구,12,80,37.51665878,127.11625671,ST-1719
20,2622. 올림픽공원역 3번출구,2,10,37.51625824,127.13059235,ST-1720
15,2623.석촌동 주민센터,24,160,37.50362396,127.10355377,ST-1851
15,2625.가락종합 사회복지관,7,47,37.49553680,127.10720062,ST-1852
15,"2626.경찰병원역 1,2번 출구 사이",13,87,37.49569321,127.12385559,ST-1853
15,2627.문정시영아파트 5동 앞 공원,8,53,37.49112320,127.13510895,ST-1854
15,2628.문정역 1번출구,4,27,37.48669815,127.12244415,ST-1855
12,2630.서울방이동 고분군,1,8,37.50786591,127.11698914,ST-1857
15,2631.배명고등학교,10,67,37.49741364,127.09630585,ST-1858
9,2632.석촌고분역 2번 출구,38,422,37.50264359,127.09739685,ST-1859
20,2633.송파학사 옆,3,15,37.47817993,127.14710236,ST-1860
10,2634.위례포레샤인아파트 2318동,43,430,37.47799301,127.13723755,ST-1861
21,2635.잠실새내역 1번출구,0,0,37.51129532,127.08673859,ST-1862
15,2637. 아시아지하보도 14번 출구,2,13,37.51146317,127.07881165,ST-1864
18,2639.석촌역 8번출구,0,0,37.50550461,127.10657501,ST-1866
15,2641.송파역 4번출구,6,40,37.50004959,127.11151123,ST-1793
12,2642.마천동 성내천 쉼터,21,175,37.50149536,127.14778137,ST-1794
10,2643.풍납중학교 측면,1,10,37.52515793,127.11694336,ST-1795
10,2644. 성내5교,36,360,37.50166702,127.13774109,ST-1796
10,2645.잠실나들목2(엘스아파트136동),19,190,37.51621246,127.08434296,ST-1797
12,2646.레이크펠리스101동앞,24,200,37.50775909,127.09129333,ST-1867
7,2647.잠실 자전거 수리센터 앞,0,0,37.51100922,127.10114288,ST-1868
30,2648.헬리오시티 112동 앞,14,47,37.49469757,127.10464478,ST-1869
10,2649.오금공원사거리2,2,20,37.50544357,127.13233185,ST-1870
7,2650.위례22단지 2208동 다리앞,23,329,37.47854996,127.13813782,ST-1871
20,2651.경찰병원역 3번출구 앞,16,80,37.49612427,127.12480164,ST-1872
41,2652.송파 레미니스1단지 102동 앞,7,17,37.50883102,127.13426208,ST-1873
25,2653.올림픽공원사거리(선수촌아파트),18,72,37.51202011,127.12864685,ST-1874
10,2654.올림픽선수촌아파트 136동 앞,11,110,37.50997543,127.13369751,ST-1875
20,2655.송이공원,16,80,37.50057983,127.11884308,ST-1876
10,2656.풍납동 아이파크 107동 앞,6,60,37.52480316,127.11463928,ST-1878
10,2657.송파 파인타운 11단지 ,3,30,37.47916031,127.13219452,ST-1877
10,2658.가락몰 업무동,5,50,37.49535751,127.11569214,ST-2409
10,2659.서울친환경유통센터,3,30,37.49416733,127.10453033,ST-2410
26,2701. 마곡나루역 5번출구 뒤편,0,0,37.56520081,126.82731628,ST-1718
20,2702. 마곡 엠밸리2단지,23,115,37.56917953,126.81944275,ST-1727
20,2703.서울도시가스 앞 ,6,30,37.54748535,126.87202454,ST-2018
10,2704.홈플러스(강서점),1,10,37.55852127,126.85401154,ST-2020
13,2706.강서공업고등학교 앞,10,77,37.57631683,126.81649780,ST-2022
13,2707.한강아파트,35,269,37.57036972,126.84441376,ST-2023
15,2708.강서한강자이타워 앞,6,40,37.56468201,126.84890747,ST-2024
20,2709.강변아파트 310동 앞,29,145,37.56458664,126.85691833,ST-2025
30,2710.라이품 공영주차장 앞,16,53,37.57131958,126.84166718,ST-2026
9,2711.가로공원공영주차장 1번 출구,62,689,37.53736115,126.83744812,ST-2027
18,2712.화곡터널입구교차로,2,11,37.53835678,126.84236145,ST-2028
10,2713.우장초등학교 앞,37,370,37.54853439,126.84667206,ST-2029
25,2715.마곡나루역 2번 출구 ,1,4,37.56692505,126.82743835,ST-2031
20,2716.롯데 R&D 센터,24,120,37.57094193,126.82831573,ST-2032
62,2717.LG유플러스 마곡사옥,0,0,37.56133652,126.83390045,ST-2033
15,2718.마곡수명산파크1단지,57,380,37.55519104,126.83146667,ST-2034
40,2719.마곡문화공원,15,38,37.56121063,126.83034515,ST-2035
30,2720.힐스테이트에코,18,60,37.55965805,126.82960510,ST-2036
12,2721.등촌1-10단지 교차로,30,250,37.56320572,126.83936310,ST-2037
13,2723.마곡 필네이처,1,8,37.56089401,126.83669281,ST-2040
25,2724.(재)FITI시험연구원,36,144,37.56848526,126.83856964,ST-2041
20,2725.서울식물원 식물문화센터,11,55,37.56883621,126.83563232,ST-2042
25,2727.서울식물원 잔디마당 앞,0,0,37.56392670,126.83064270,ST-2044
65,2728.마곡나루역 3번 출구,2,3,37.56580353,126.82807922,ST-2045
30,2729.넥센 유니버시티 앞,0,0,37.56948471,126.82809448,ST-2046
30,2730.마곡메가박스 앞,15,50,37.55912781,126.83495331,ST-2047
20,2731.명덕고교,9,45,37.55524063,126.83471680,ST-2048
14,2732.마곡수명산 1-2단지 ,51,364,37.55530930,126.82985687,ST-2049
20,2733.마곡13단지 정문 앞,118,590,37.55863190,126.81991577,ST-2050
10,2737.까치산역 3번 출구,8,80,37.53158951,126.84664154,ST-2054
20,2739.수명산파크1단지교차로,75,375,37.55363083,126.82861328,ST-2056
20,2740.마곡레포츠센터,11,55,37.57297516,126.83244324,ST-2057
8,2741.마곡수명산파크5-6단지,49,613,37.55061722,126.82688141,ST-2058
10,2742.강서구민올림픽체육센터,12,120,37.55990601,126.85042572,ST-2059
25,2744.강서세무서 앞,34,136,37.56209183,126.82096863,ST-2411
9,2745.수명초등학교,37,411,37.55255890,126.82311249,ST-2412
10,2746.수명산파크 4단지 411동 앞,36,360,37.55134964,126.82493591,ST-2419
30,2801. 대륭포스트타워1차,0,0,37.48437119,126.89542389,ST-1753
10,2804.항동지구 6단지 602동 앞,10,100,37.47737503,126.82001495,ST-1944
10,2805.구로자원순환센터 ,7,70,37.48250961,126.82575989,ST-1945
10,2806.항동지구 4단지 입구,8,80,37.48259735,126.82645416,ST-1946
10,2807.항동지구 1단지 105동 앞,26,260,37.48062897,126.82181549,ST-1947
10,2808.항동지구 2단지 202동 앞,18,180,37.48080826,126.82190704,ST-1948
10,2809.항동지구 11단지 1103동 앞,30,300,37.47790527,126.82311249,ST-1949
10,2810.항동지구 3단지 311동 앞,16,160,37.47793961,126.82327271,ST-1950
15,2812.항동프라자,16,107,37.47983170,126.82275391,ST-1952
5,2813.항동지구 3단지 302동 앞,4,80,37.47937012,126.82546997,ST-1953
10,2814.항동지구 10단지 1001동 앞,6,60,37.47934341,126.82563782,ST-1954
12,2815.항동지구 7단지 정문,12,100,37.47603607,126.81658936,ST-1955
5,2816.항동지구 8단지 803동옆(주차장입구),4,80,37.47473145,126.81700897,ST-1956
10,2817.천왕이펜하우스5단지 앞,10,100,37.47989655,126.84037018,ST-1957
14,2818.천왕이펜하우스3단지 앞,13,93,37.48223877,126.83853149,ST-1958
20,2819.하늘숲초등학교 앞,17,85,37.48366547,126.84161377,ST-1959
10,2820.신세기아파트 앞,27,270,37.49396515,126.85304260,ST-1960
10,2821.청구아파트 앞,25,250,37.50119019,126.86353302,ST-1961
14,2822.제니스스포츠 앞,21,150,37.50452042,126.87055206,ST-1962
10,2823.중앙유통단지 앞,0,0,37.49981308,126.87431335,ST-1963
10,2824.미래사랑어린이공원 앞,1,10,37.51006317,126.88956451,ST-1964
10,2825.초롱타운 앞,13,130,37.49545288,126.88039398,ST-1965
10,2826.가마산지하보도 옆,13,130,37.48864746,126.88047028,ST-1966
8,2901.공릉동풍림아파트 101동,38,475,37.62981415,127.06650543,ST-2067
12,2902.공릉풍림아파트 108동,64,533,37.62862015,127.06690979,ST-2068
10,2903.월계초안아파트 1단지,22,220,37.63372803,127.04436493,ST-2069
8,2904.중계3차청구아파트,5,63,37.65050507,127.07398224,ST-2070
15,2907. 월계중학교,0,0,37.63074875,127.05310822,ST-2073
20,2908. 광운대학교 중앙도서관,6,30,37.62000275,127.05856323,ST-2074
13,2909. 석계역 3번 출구,32,246,37.61545944,127.06745148,ST-2075
6,2910.도깨비시장,38,633,37.62289047,127.07365417,ST-2076
7,2911.상계역중앙시장,2,29,37.65887070,127.07191467,ST-2077
20,2912.대진고등학교,1,5,37.63815689,127.07326508,ST-2078
17,2913.상계8동 주민센터,54,318,37.66712952,127.05176544,ST-2079
10,2914.서울과학기술대학교(미래관),30,300,37.62950897,127.08103943,ST-2080
35,2915.서울과학기술대학교(어학교육원),37,106,37.63489914,127.07767487,ST-2081
10,2917.신창중학교 후문 맞은편 버스정류장,18,180,37.62807083,127.04692078,ST-2083
16,2919.등나무 근린공원(시립북서울미술관 앞) ,2,13,37.64020538,127.06761932,ST-2085
14,2920.상계중학교(당현2교사거리),18,129,37.65103531,127.06871033,ST-2086
10,2921.중계역 2번출구,5,50,37.64587021,127.06562042,ST-2087
10,3002.벽산상암스마트큐브 ,9,90,37.56504440,126.90360260,ST-2160
5,3003.래미안신공덕3차아파트,12,240,37.54554749,126.95679474,ST-2161
10,3005.마포구청 청사내,0,0,37.56624603,126.90218353,ST-2163
